{
"type": "FeatureCollection",
"name": "salud_pub",
"xy_coordinate_resolution": 1e-07,
"features": [
{ "type": "Feature", "properties": { "id_geo_n": 2238, "nom_comerc": "UNIDAD BÁSICA DE REHABILITACIÓN SABANCUY" }, "geometry": { "type": "Point", "coordinates": [ -91.1820921, 18.9733982 ] } },
{ "type": "Feature", "properties": { "id_geo_n": 2694, "nom_comerc": "HOSPITAL INTEGRAL SABANCUY" }, "geometry": { "type": "Point", "coordinates": [ -91.182, 18.9737 ] } },
{ "type": "Feature", "properties": { "id_geo_n": 2344, "nom_comerc": "HOSPITAL DE SABANCUY" }, "geometry": { "type": "Point", "coordinates": [ -91.175034, 18.968286 ] } },
{ "type": "Feature", "properties": { "id_geo_n": 2817, "nom_comerc": "HOSPITAL DE SABANCUY" }, "geometry": { "type": "Point", "coordinates": [ -91.175034, 18.968286 ] } },
{ "type": "Feature", "properties": { "id_geo_n": 2826, "nom_comerc": "UNIDAD MÉDICA MÓVIL P-2" }, "geometry": { "type": "Point", "coordinates": [ -90.0376369, 20.1953349 ] } },
{ "type": "Feature", "properties": { "id_geo_n": 2841, "nom_comerc": "UNIDAD MEDICA MOVIL P-26" }, "geometry": { "type": "Point", "coordinates": [ -89.8278454, 20.187353 ] } },
{ "type": "Feature", "properties": { "id_geo_n": 2724, "nom_comerc": "UNIDAD MEDICA MOVIL P-26" }, "geometry": { "type": "Point", "coordinates": [ -89.8278454, 20.187353 ] } },
{ "type": "Feature", "properties": { "id_geo_n": 2365, "nom_comerc": "UNIDAD MEDICA MOVIL P-26" }, "geometry": { "type": "Point", "coordinates": [ -89.8278454, 20.187353 ] } },
{ "type": "Feature", "properties": { "id_geo_n": 2727, "nom_comerc": "CENTRO DE SALUD SAN ANTONIO YAXCHE" }, "geometry": { "type": "Point", "coordinates": [ -89.732692, 20.113283 ] } },
{ "type": "Feature", "properties": { "id_geo_n": 2295, "nom_comerc": "CENTRO DE SALUD SAN ANTONIO YAXCHE" }, "geometry": { "type": "Point", "coordinates": [ -89.732692, 20.113283 ] } },
{ "type": "Feature", "properties": { "id_geo_n": 2818, "nom_comerc": "CENTRO DE SALUD BOLONCHEN DE REJÓN" }, "geometry": { "type": "Point", "coordinates": [ -89.754864, 20.00376 ] } },
{ "type": "Feature", "properties": { "id_geo_n": 2820, "nom_comerc": "CENTRO DE SALUD DE TENABO" }, "geometry": { "type": "Point", "coordinates": [ -90.2306864, 20.0327605 ] } },
{ "type": "Feature", "properties": { "id_geo_n": 2723, "nom_comerc": "CENTRO DE SALUD BOLONCHÉNN DE REJÓN" }, "geometry": { "type": "Point", "coordinates": [ -89.7424, 20.0054 ] } },
{ "type": "Feature", "properties": { "id_geo_n": 2345, "nom_comerc": "CENTRO DE SALUD BOLONCHEN DE REJÓN" }, "geometry": { "type": "Point", "coordinates": [ -89.754864, 20.00376 ] } },
{ "type": "Feature", "properties": { "id_geo_n": 2245, "nom_comerc": "UNIDAD BASICA DE REHABILITACION BOLONCHEN" }, "geometry": { "type": "Point", "coordinates": [ -89.754204, 20.00338 ] } },
{ "type": "Feature", "properties": { "id_geo_n": 2794, "nom_comerc": "CENTRO DE SALUD LERMA" }, "geometry": { "type": "Point", "coordinates": [ -90.6021, 19.8051 ] } },
{ "type": "Feature", "properties": { "id_geo_n": 2907, "nom_comerc": "CENTRO ESTATAL DE REHABILITACIÓN INTEGRAL" }, "geometry": { "type": "Point", "coordinates": [ -90.5643821, 19.8270926 ] } },
{ "type": "Feature", "properties": { "id_geo_n": 2846, "nom_comerc": "CENTRO ESTATAL DE VACUNOLOGIA" }, "geometry": { "type": "Point", "coordinates": [ -90.563089, 19.825819 ] } },
{ "type": "Feature", "properties": { "id_geo_n": 2866, "nom_comerc": "OFICINAS ESTATALES (FEDERAL)" }, "geometry": { "type": "Point", "coordinates": [ -90.5487, 19.8309 ] } },
{ "type": "Feature", "properties": { "id_geo_n": 2865, "nom_comerc": "U. COORD. DE PROTECC. SOCIAL EN SALUD" }, "geometry": { "type": "Point", "coordinates": [ -90.5487, 19.8309 ] } },
{ "type": "Feature", "properties": { "id_geo_n": 2871, "nom_comerc": "ALMACÉN GENERAL" }, "geometry": { "type": "Point", "coordinates": [ -90.5487, 19.8309 ] } },
{ "type": "Feature", "properties": { "id_geo_n": 2868, "nom_comerc": "OFICINAS JURISDICCIONALES" }, "geometry": { "type": "Point", "coordinates": [ -90.5487, 19.8309 ] } },
{ "type": "Feature", "properties": { "id_geo_n": 2795, "nom_comerc": "CENTRO DE SALUD SAMULA" }, "geometry": { "type": "Point", "coordinates": [ -90.548396, 19.81598 ] } },
{ "type": "Feature", "properties": { "id_geo_n": 2872, "nom_comerc": "OFICINAS ALMACÉN" }, "geometry": { "type": "Point", "coordinates": [ -90.5469509, 19.8327859 ] } },
{ "type": "Feature", "properties": { "id_geo_n": 2662, "nom_comerc": "EPIDEMIOLÓGICA P-23" }, "geometry": { "type": "Point", "coordinates": [ -90.5416, 19.8434 ] } },
{ "type": "Feature", "properties": { "id_geo_n": 2657, "nom_comerc": "BLANCA FLOR P-2" }, "geometry": { "type": "Point", "coordinates": [ -90.5416, 19.8434 ] } },
{ "type": "Feature", "properties": { "id_geo_n": 2659, "nom_comerc": "CAMPECHE P-22" }, "geometry": { "type": "Point", "coordinates": [ -90.5416, 19.8433 ] } },
{ "type": "Feature", "properties": { "id_geo_n": 2669, "nom_comerc": "AUDIOLOGÍA P-39" }, "geometry": { "type": "Point", "coordinates": [ -90.5416, 19.8434 ] } },
{ "type": "Feature", "properties": { "id_geo_n": 2668, "nom_comerc": "OPTOMÉTRICA P-38" }, "geometry": { "type": "Point", "coordinates": [ -90.5416, 19.8434 ] } },
{ "type": "Feature", "properties": { "id_geo_n": 2665, "nom_comerc": "VOLANTA PEC-23" }, "geometry": { "type": "Point", "coordinates": [ -90.5416, 19.8434 ] } },
{ "type": "Feature", "properties": { "id_geo_n": 2664, "nom_comerc": "EPIDEMIOLÓGICA P-22" }, "geometry": { "type": "Point", "coordinates": [ -90.5416, 19.8434 ] } },
{ "type": "Feature", "properties": { "id_geo_n": 2667, "nom_comerc": "EPIDEMIOLÓGICA P-25" }, "geometry": { "type": "Point", "coordinates": [ -90.5416, 19.8434 ] } },
{ "type": "Feature", "properties": { "id_geo_n": 2666, "nom_comerc": "VOLANTA PEC-24" }, "geometry": { "type": "Point", "coordinates": [ -90.5416, 19.8434 ] } },
{ "type": "Feature", "properties": { "id_geo_n": 2661, "nom_comerc": "EPIDEMIOLÓGICA P-24" }, "geometry": { "type": "Point", "coordinates": [ -90.5416, 19.8434 ] } },
{ "type": "Feature", "properties": { "id_geo_n": 2660, "nom_comerc": "EPIDEMIOLÓGICA P-23" }, "geometry": { "type": "Point", "coordinates": [ -90.5416, 19.8434 ] } },
{ "type": "Feature", "properties": { "id_geo_n": 2663, "nom_comerc": "EPIDEMIOLÓGICA P-21" }, "geometry": { "type": "Point", "coordinates": [ -90.5416, 19.8434 ] } },
{ "type": "Feature", "properties": { "id_geo_n": 2867, "nom_comerc": "OFICINAS ESTATALES (ESTATAL)" }, "geometry": { "type": "Point", "coordinates": [ -90.541286, 19.8433628 ] } },
{ "type": "Feature", "properties": { "id_geo_n": 2756, "nom_comerc": "MÉDICO-DENTAL P-36" }, "geometry": { "type": "Point", "coordinates": [ -90.541191, 19.843433 ] } },
{ "type": "Feature", "properties": { "id_geo_n": 2670, "nom_comerc": "CENTRO DE SALUD DR. WILBERTH ESCALANTE" }, "geometry": { "type": "Point", "coordinates": [ -90.54104, 19.843689 ] } },
{ "type": "Feature", "properties": { "id_geo_n": 2479, "nom_comerc": "DR. PATRICIO TRUEBA REGIL" }, "geometry": { "type": "Point", "coordinates": [ -90.5637, 19.8263 ] } },
{ "type": "Feature", "properties": { "id_geo_n": 2496, "nom_comerc": null }, "geometry": { "type": "Point", "coordinates": [ -90.558219, 19.82708 ] } },
{ "type": "Feature", "properties": { "id_geo_n": 2497, "nom_comerc": "HOSPITAL NAVAL DE CAMPECHE" }, "geometry": { "type": "Point", "coordinates": [ -90.555974, 19.829958 ] } },
{ "type": "Feature", "properties": { "id_geo_n": 2327, "nom_comerc": "CENTRO DE SALUD SAMULA" }, "geometry": { "type": "Point", "coordinates": [ -90.548396, 19.81598 ] } },
{ "type": "Feature", "properties": { "id_geo_n": 2256, "nom_comerc": "CENTRO DE SALUD DR. WILBERTH ESCALANTE" }, "geometry": { "type": "Point", "coordinates": [ -90.54104, 19.843689 ] } },
{ "type": "Feature", "properties": { "id_geo_n": 2214, "nom_comerc": "SISTEMA DIF ESTATAL" }, "geometry": { "type": "Point", "coordinates": [ -90.539473, 19.845011 ] } },
{ "type": "Feature", "properties": { "id_geo_n": 2473, "nom_comerc": "CSS CAMPECHE" }, "geometry": { "type": "Point", "coordinates": [ -90.5379928, 19.8393389 ] } },
{ "type": "Feature", "properties": { "id_geo_n": 2475, "nom_comerc": "ALMACÉN DELEGACIONAL EN CAMPECHE" }, "geometry": { "type": "Point", "coordinates": [ -90.537636, 19.83865 ] } },
{ "type": "Feature", "properties": { "id_geo_n": 2461, "nom_comerc": "HGZMF 1 CAMPECHE" }, "geometry": { "type": "Point", "coordinates": [ -90.537, 19.8402 ] } },
{ "type": "Feature", "properties": { "id_geo_n": 2655, "nom_comerc": "EDIFICIO ADMINISTRATIVO DE LA SECRETARIA ESTATAL DE SALUD DEL PODER EJECUTIVO DEL ESTADO DE CAMPECHE" }, "geometry": { "type": "Point", "coordinates": [ -90.5365, 19.8404 ] } },
{ "type": "Feature", "properties": { "id_geo_n": 2796, "nom_comerc": "CENTRO DE SALUD SASCALUM" }, "geometry": { "type": "Point", "coordinates": [ -90.536202, 19.816247 ] } },
{ "type": "Feature", "properties": { "id_geo_n": 2328, "nom_comerc": "CENTRO DE SALUD SASCALUM" }, "geometry": { "type": "Point", "coordinates": [ -90.536202, 19.816247 ] } },
{ "type": "Feature", "properties": { "id_geo_n": 2216, "nom_comerc": "SISTEMA DIF MUNICIPAL DE CAMPECHE" }, "geometry": { "type": "Point", "coordinates": [ -90.5340174, 19.8455668 ] } },
{ "type": "Feature", "properties": { "id_geo_n": 2804, "nom_comerc": "CENTRO REGIONAL DE DESARROLLO INFANTIL Y ESTIMULACIÓN TEMPRANA CAMPECHE" }, "geometry": { "type": "Point", "coordinates": [ -90.533279, 19.84357 ] } },
{ "type": "Feature", "properties": { "id_geo_n": 2654, "nom_comerc": "HOSPITAL DR. MANUEL CAMPOS" }, "geometry": { "type": "Point", "coordinates": [ -90.532584, 19.844724 ] } },
{ "type": "Feature", "properties": { "id_geo_n": 2901, "nom_comerc": "CENTRO MÉDICO ESTATAL DE OFTALMOLOGÍA" }, "geometry": { "type": "Point", "coordinates": [ -90.53245, 19.844933 ] } },
{ "type": "Feature", "properties": { "id_geo_n": 2447, "nom_comerc": "CAMPECHE" }, "geometry": { "type": "Point", "coordinates": [ -90.5317, 19.8422 ] } },
{ "type": "Feature", "properties": { "id_geo_n": 2492, "nom_comerc": "UNIDAD DE PROTECCIÓN Y MEDICINA PREVENTIVA EN EL TRANSPORTE CAMPECHE" }, "geometry": { "type": "Point", "coordinates": [ -90.5317, 19.8422 ] } },
{ "type": "Feature", "properties": { "id_geo_n": 2210, "nom_comerc": "CRUZ ROJA MEXICANA BASE ESTATAL CAMPECHE" }, "geometry": { "type": "Point", "coordinates": [ -90.5317, 19.8422 ] } },
{ "type": "Feature", "properties": { "id_geo_n": 2822, "nom_comerc": "REPSS" }, "geometry": { "type": "Point", "coordinates": [ -90.5306027, 19.8241952 ] } },
{ "type": "Feature", "properties": { "id_geo_n": 2489, "nom_comerc": "REPRESENTACIÓN ESTATAL DEL ISSSTE EN CAMPECHE" }, "geometry": { "type": "Point", "coordinates": [ -90.5283609, 19.8537389 ] } },
{ "type": "Feature", "properties": { "id_geo_n": 2875, "nom_comerc": "LABORATORIO ESTATAL DE SALUD PUBLICA" }, "geometry": { "type": "Point", "coordinates": [ -90.5283013, 19.854257 ] } },
{ "type": "Feature", "properties": { "id_geo_n": 2847, "nom_comerc": "COMISIÓN DE ARBITRAJE MÉDICO DEL ESTADO DE CAMPECHE" }, "geometry": { "type": "Point", "coordinates": [ -90.528199, 19.84968 ] } },
{ "type": "Feature", "properties": { "id_geo_n": 2463, "nom_comerc": "UMF 11 AH KIM PECH" }, "geometry": { "type": "Point", "coordinates": [ -90.5271991, 19.8542254 ] } },
{ "type": "Feature", "properties": { "id_geo_n": 2476, "nom_comerc": "DELEGACIÓN REGIONAL DE CAMPECHE" }, "geometry": { "type": "Point", "coordinates": [ -90.5266, 19.85467 ] } },
{ "type": "Feature", "properties": { "id_geo_n": 2472, "nom_comerc": "UMAA CAMPECHE (AUT)" }, "geometry": { "type": "Point", "coordinates": [ -90.5263982, 19.8215754 ] } },
{ "type": "Feature", "properties": { "id_geo_n": 2887, "nom_comerc": "UNEME CAPASITS CAMPECHE" }, "geometry": { "type": "Point", "coordinates": [ -90.525429, 19.8161153 ] } },
{ "type": "Feature", "properties": { "id_geo_n": 2893, "nom_comerc": "CEO: CENTRO ESTATAL DE ONCOLOGÍA DE CAMPECHE" }, "geometry": { "type": "Point", "coordinates": [ -90.525127, 19.817002 ] } },
{ "type": "Feature", "properties": { "id_geo_n": 2391, "nom_comerc": "CEO: CENTRO ESTATAL DE ONCOLOGÍA DE CAMPECHE" }, "geometry": { "type": "Point", "coordinates": [ -90.525127, 19.817002 ] } },
{ "type": "Feature", "properties": { "id_geo_n": 2402, "nom_comerc": "UNEME DEDICAM" }, "geometry": { "type": "Point", "coordinates": [ -90.525041, 19.816246 ] } },
{ "type": "Feature", "properties": { "id_geo_n": 2906, "nom_comerc": "UNEME DEDICAM" }, "geometry": { "type": "Point", "coordinates": [ -90.525041, 19.816246 ] } },
{ "type": "Feature", "properties": { "id_geo_n": 2823, "nom_comerc": "ALMACÉN GENERA LÁZARO CÁRDENAS" }, "geometry": { "type": "Point", "coordinates": [ -90.5240832, 19.8159992 ] } },
{ "type": "Feature", "properties": { "id_geo_n": 2876, "nom_comerc": "CENTRO TRANSFUSIÓN SANGUÍNEA" }, "geometry": { "type": "Point", "coordinates": [ -90.5240612, 19.8159616 ] } },
{ "type": "Feature", "properties": { "id_geo_n": 2904, "nom_comerc": "HOSPITAL GENERAL DE ESPECIALIDADES DR. JAVIER BUENFIL OSORIO" }, "geometry": { "type": "Point", "coordinates": [ -90.523917, 19.815162 ] } },
{ "type": "Feature", "properties": { "id_geo_n": 2400, "nom_comerc": "HOSPITAL GENERAL DE ESPECIALIDADES DR. JAVIER BUENFIL OSORIO" }, "geometry": { "type": "Point", "coordinates": [ -90.523917, 19.815162 ] } },
{ "type": "Feature", "properties": { "id_geo_n": 2329, "nom_comerc": "CENTRO DE SALUD POLVORÍN" }, "geometry": { "type": "Point", "coordinates": [ -90.521374, 19.826189 ] } },
{ "type": "Feature", "properties": { "id_geo_n": 2797, "nom_comerc": "CENTRO DE SALUD POLVORÍN" }, "geometry": { "type": "Point", "coordinates": [ -90.521374, 19.826189 ] } },
{ "type": "Feature", "properties": { "id_geo_n": 2241, "nom_comerc": "CENTRO DE REHABILITACIÓN Y EDUCACIÓN ESPECIAL \"PROFRA. ELSA MARÍA SAN ROMÁN DE SANSORES\"" }, "geometry": { "type": "Point", "coordinates": [ -90.5237, 19.8454 ] } },
{ "type": "Feature", "properties": { "id_geo_n": 2247, "nom_comerc": "SERVICIO MEDICO FORENSE CAMPECHE" }, "geometry": { "type": "Point", "coordinates": [ -90.5311022, 19.8146563 ] } },
{ "type": "Feature", "properties": { "id_geo_n": 2255, "nom_comerc": "HOSPITAL DR. MANUEL CAMPOS" }, "geometry": { "type": "Point", "coordinates": [ -90.532584, 19.844724 ] } },
{ "type": "Feature", "properties": { "id_geo_n": 2864, "nom_comerc": "CENTRO REGULADOR DE URGENCIAS MEDICAS CAMPECHE" }, "geometry": { "type": "Point", "coordinates": [ -90.5186923, 19.840032 ] } },
{ "type": "Feature", "properties": { "id_geo_n": 2821, "nom_comerc": "CENTRO REGIONAL DE DESARROLLO INFANTIL Y ESTIMULACIÓN TEMPRANA (CEREDI)" }, "geometry": { "type": "Point", "coordinates": [ -90.5176146, 19.8403989 ] } },
{ "type": "Feature", "properties": { "id_geo_n": 2348, "nom_comerc": "CENTRO REGIONAL DE DESARROLLO INFANTIL Y ESTIMULACIÓN TEMPRANA (CEREDI)" }, "geometry": { "type": "Point", "coordinates": [ -90.5176146, 19.8403989 ] } },
{ "type": "Feature", "properties": { "id_geo_n": 2855, "nom_comerc": "SERVICIO AMIGABLE ITINERANTE EDUSEX" }, "geometry": { "type": "Point", "coordinates": [ -90.5175349, 19.8407142 ] } },
{ "type": "Feature", "properties": { "id_geo_n": 2217, "nom_comerc": "DIF-ASILO" }, "geometry": { "type": "Point", "coordinates": [ -90.5172, 19.8018 ] } },
{ "type": "Feature", "properties": { "id_geo_n": 2215, "nom_comerc": "DIF-ASILO Y OTRAS RESIDENCIAS DEL SECTOR PÚBLICO PARA EL CUIDADO DE ANCIANOS" }, "geometry": { "type": "Point", "coordinates": [ -90.5172, 19.8018 ] } },
{ "type": "Feature", "properties": { "id_geo_n": 2854, "nom_comerc": "ALMACEN GENERAL HEROE DE NACOZARI" }, "geometry": { "type": "Point", "coordinates": [ -90.5106013, 19.8287141 ] } },
{ "type": "Feature", "properties": { "id_geo_n": 2330, "nom_comerc": "CENTRO DE SALUD MORELOS" }, "geometry": { "type": "Point", "coordinates": [ -90.504394, 19.855103 ] } },
{ "type": "Feature", "properties": { "id_geo_n": 2798, "nom_comerc": "CENTRO DE SALUD MORELOS" }, "geometry": { "type": "Point", "coordinates": [ -90.504394, 19.855103 ] } },
{ "type": "Feature", "properties": { "id_geo_n": 2810, "nom_comerc": "UNIDAD DE ESPECIALIDAD MEDICA CENTRO INTEGRAL DE SALUD MENTAL UNEME CISAME" }, "geometry": { "type": "Point", "coordinates": [ -90.504269, 19.855045 ] } },
{ "type": "Feature", "properties": { "id_geo_n": 2337, "nom_comerc": "UNIDAD DE ESPECIALIDAD MEDICA CENTRO INTEGRAL DE SALUD MENTAL UNEME CISAME" }, "geometry": { "type": "Point", "coordinates": [ -90.504269, 19.855045 ] } },
{ "type": "Feature", "properties": { "id_geo_n": 2799, "nom_comerc": "CENTRO DE SALUD SANTA LUCÍA" }, "geometry": { "type": "Point", "coordinates": [ -90.5029, 19.844 ] } },
{ "type": "Feature", "properties": { "id_geo_n": 2462, "nom_comerc": "UMF 10 SANTA LUCÍA" }, "geometry": { "type": "Point", "coordinates": [ -90.5016153, 19.8447035 ] } },
{ "type": "Feature", "properties": { "id_geo_n": 2229, "nom_comerc": "UNIDAD BÁSICA DE REHABILITACIÓN ERNESTO ZEDILLO" }, "geometry": { "type": "Point", "coordinates": [ -90.495083, 19.867528 ] } },
{ "type": "Feature", "properties": { "id_geo_n": 2392, "nom_comerc": "CENTRO COMUNITARIO DE SALUD MENTAL Y ADICCIONES CAMPECHE" }, "geometry": { "type": "Point", "coordinates": [ -90.493715, 19.864092 ] } },
{ "type": "Feature", "properties": { "id_geo_n": 2894, "nom_comerc": "CENTRO COMUNITARIO DE SALUD MENTAL Y ADICCIONES CAMPECHE" }, "geometry": { "type": "Point", "coordinates": [ -90.493715, 19.864092 ] } },
{ "type": "Feature", "properties": { "id_geo_n": 2900, "nom_comerc": "UNEME SORYD CAMPECHE" }, "geometry": { "type": "Point", "coordinates": [ -90.493534, 19.863913 ] } },
{ "type": "Feature", "properties": { "id_geo_n": 2397, "nom_comerc": "UNEME SORYD CAMPECHE" }, "geometry": { "type": "Point", "coordinates": [ -90.493534, 19.863913 ] } },
{ "type": "Feature", "properties": { "id_geo_n": 2471, "nom_comerc": "UMF 13 CAMPECHE" }, "geometry": { "type": "Point", "coordinates": [ -90.4929, 19.834 ] } },
{ "type": "Feature", "properties": { "id_geo_n": 2500, "nom_comerc": "HOSNAVCAMP" }, "geometry": { "type": "Point", "coordinates": [ -90.4925797, 19.8440904 ] } },
{ "type": "Feature", "properties": { "id_geo_n": 2674, "nom_comerc": "CENTRO DE SALUD IMÍ" }, "geometry": { "type": "Point", "coordinates": [ -90.473944, 19.875567 ] } },
{ "type": "Feature", "properties": { "id_geo_n": 2260, "nom_comerc": "CENTRO DE SALUD IMÍ" }, "geometry": { "type": "Point", "coordinates": [ -90.473944, 19.875567 ] } },
{ "type": "Feature", "properties": { "id_geo_n": 2672, "nom_comerc": "CENTRO DE SALUD CASTAMAY" }, "geometry": { "type": "Point", "coordinates": [ -90.430502, 19.83787 ] } },
{ "type": "Feature", "properties": { "id_geo_n": 2258, "nom_comerc": "CENTRO DE SALUD CASTAMAY" }, "geometry": { "type": "Point", "coordinates": [ -90.430502, 19.83787 ] } },
{ "type": "Feature", "properties": { "id_geo_n": 2262, "nom_comerc": "HOSPITAL PSIQUIÁTRICO DE CAMPECHE" }, "geometry": { "type": "Point", "coordinates": [ -90.419136, 19.913613 ] } },
{ "type": "Feature", "properties": { "id_geo_n": 2676, "nom_comerc": "HOSPITAL PSIQUIÁTRICO DE CAMPECHE" }, "geometry": { "type": "Point", "coordinates": [ -90.419136, 19.913613 ] } },
{ "type": "Feature", "properties": { "id_geo_n": 2263, "nom_comerc": "CENTRO DE SALUD KOBÉN" }, "geometry": { "type": "Point", "coordinates": [ -90.416198, 19.916825 ] } },
{ "type": "Feature", "properties": { "id_geo_n": 2677, "nom_comerc": "CENTRO DE SALUD KOBÉN" }, "geometry": { "type": "Point", "coordinates": [ -90.416198, 19.916825 ] } },
{ "type": "Feature", "properties": { "id_geo_n": 2673, "nom_comerc": "CENTRO DE SALUD HAMPOLOL" }, "geometry": { "type": "Point", "coordinates": [ -90.388561, 19.926406 ] } },
{ "type": "Feature", "properties": { "id_geo_n": 2259, "nom_comerc": "CENTRO DE SALUD HAMPOLOL" }, "geometry": { "type": "Point", "coordinates": [ -90.388561, 19.926406 ] } },
{ "type": "Feature", "properties": { "id_geo_n": 2257, "nom_comerc": "CENTRO DE SALUD BETHANIA" }, "geometry": { "type": "Point", "coordinates": [ -90.366075, 19.908169 ] } },
{ "type": "Feature", "properties": { "id_geo_n": 2671, "nom_comerc": "CENTRO DE SALUD BETHANIA" }, "geometry": { "type": "Point", "coordinates": [ -90.366075, 19.908169 ] } },
{ "type": "Feature", "properties": { "id_geo_n": 2675, "nom_comerc": "CENTRO DE SALUD NILCHÍ" }, "geometry": { "type": "Point", "coordinates": [ -90.271423, 19.845743 ] } },
{ "type": "Feature", "properties": { "id_geo_n": 2261, "nom_comerc": "CENTRO DE SALUD NILCHÍ" }, "geometry": { "type": "Point", "coordinates": [ -90.271423, 19.845743 ] } },
{ "type": "Feature", "properties": { "id_geo_n": 2429, "nom_comerc": "CHUNKANÁN" }, "geometry": { "type": "Point", "coordinates": [ -90.2411638, 20.245567 ] } },
{ "type": "Feature", "properties": { "id_geo_n": 2347, "nom_comerc": "CENTRO DE SALUD DE TENABO" }, "geometry": { "type": "Point", "coordinates": [ -90.2306864, 20.0327605 ] } },
{ "type": "Feature", "properties": { "id_geo_n": 2739, "nom_comerc": "CENTRO DE SALUD TINÚN" }, "geometry": { "type": "Point", "coordinates": [ -90.225297, 19.965335 ] } },
{ "type": "Feature", "properties": { "id_geo_n": 2301, "nom_comerc": "CENTRO DE SALUD TINÚN" }, "geometry": { "type": "Point", "coordinates": [ -90.225297, 19.965335 ] } },
{ "type": "Feature", "properties": { "id_geo_n": 2221, "nom_comerc": "DIF-TENABO" }, "geometry": { "type": "Point", "coordinates": [ -90.2253, 20.0411 ] } },
{ "type": "Feature", "properties": { "id_geo_n": 2234, "nom_comerc": "UNIDAD BÁSICA DE REHABILITACIÓN TENABO" }, "geometry": { "type": "Point", "coordinates": [ -90.2253, 20.0411 ] } },
{ "type": "Feature", "properties": { "id_geo_n": 2738, "nom_comerc": "CENTRO DE SALUD DE TENABO" }, "geometry": { "type": "Point", "coordinates": [ -90.2243, 20.041 ] } },
{ "type": "Feature", "properties": { "id_geo_n": 2488, "nom_comerc": "TENABO" }, "geometry": { "type": "Point", "coordinates": [ -90.2237, 20.0388 ] } },
{ "type": "Feature", "properties": { "id_geo_n": 2719, "nom_comerc": "CENTRO DE SALUD POMUCH" }, "geometry": { "type": "Point", "coordinates": [ -90.174196, 20.138367 ] } },
{ "type": "Feature", "properties": { "id_geo_n": 2292, "nom_comerc": "CENTRO DE SALUD POMUCH" }, "geometry": { "type": "Point", "coordinates": [ -90.174196, 20.138367 ] } },
{ "type": "Feature", "properties": { "id_geo_n": 2437, "nom_comerc": "EMILIANO ZAPATA (TENABO)" }, "geometry": { "type": "Point", "coordinates": [ -90.1520498, 19.8224752 ] } },
{ "type": "Feature", "properties": { "id_geo_n": 2809, "nom_comerc": "CENTRO DE SALUD DE ISLA ARENA" }, "geometry": { "type": "Point", "coordinates": [ -90.4536902, 20.6933893 ] } },
{ "type": "Feature", "properties": { "id_geo_n": 2336, "nom_comerc": "CENTRO DE SALUD DE ISLA ARENA" }, "geometry": { "type": "Point", "coordinates": [ -90.4536902, 20.6933893 ] } },
{ "type": "Feature", "properties": { "id_geo_n": 2406, "nom_comerc": "TANKUCHÉ" }, "geometry": { "type": "Point", "coordinates": [ -90.2441166, 20.5032335 ] } },
{ "type": "Feature", "properties": { "id_geo_n": 2652, "nom_comerc": "CENTRO DE SALUD SANTA CRUZ EX HACIENDA" }, "geometry": { "type": "Point", "coordinates": [ -90.24034, 20.398124 ] } },
{ "type": "Feature", "properties": { "id_geo_n": 2253, "nom_comerc": "CENTRO DE SALUD SANTA CRUZ EX HACIENDA" }, "geometry": { "type": "Point", "coordinates": [ -90.24034, 20.398124 ] } },
{ "type": "Feature", "properties": { "id_geo_n": 2405, "nom_comerc": "PUCNACHÉN" }, "geometry": { "type": "Point", "coordinates": [ -90.2208476, 20.3651439 ] } },
{ "type": "Feature", "properties": { "id_geo_n": 2650, "nom_comerc": "CENTRO DE SALUD NUNKINÍ" }, "geometry": { "type": "Point", "coordinates": [ -90.149439, 20.401069 ] } },
{ "type": "Feature", "properties": { "id_geo_n": 2251, "nom_comerc": "CENTRO DE SALUD NUNKINÍ" }, "geometry": { "type": "Point", "coordinates": [ -90.149439, 20.401069 ] } },
{ "type": "Feature", "properties": { "id_geo_n": 2877, "nom_comerc": "HOSPITAL INTEGRAL DE CALKINÍ" }, "geometry": { "type": "Point", "coordinates": [ -90.064245, 20.380403 ] } },
{ "type": "Feature", "properties": { "id_geo_n": 2384, "nom_comerc": "HOSPITAL INTEGRAL DE CALKINÍ" }, "geometry": { "type": "Point", "coordinates": [ -90.064245, 20.380403 ] } },
{ "type": "Feature", "properties": { "id_geo_n": 2478, "nom_comerc": "CALKINI" }, "geometry": { "type": "Point", "coordinates": [ -90.0611, 20.3735 ] } },
{ "type": "Feature", "properties": { "id_geo_n": 2213, "nom_comerc": "DIF-CALKINÍ" }, "geometry": { "type": "Point", "coordinates": [ -90.0555091, 20.3626152 ] } },
{ "type": "Feature", "properties": { "id_geo_n": 2878, "nom_comerc": "CENTRO DE SALUD DE CALKINÍ" }, "geometry": { "type": "Point", "coordinates": [ -90.0523, 20.3736 ] } },
{ "type": "Feature", "properties": { "id_geo_n": 2645, "nom_comerc": "CENTRO DE SALUD CON HOSPITAL CALKINÍ" }, "geometry": { "type": "Point", "coordinates": [ -90.0523, 20.3736 ] } },
{ "type": "Feature", "properties": { "id_geo_n": 2446, "nom_comerc": "CALKINI" }, "geometry": { "type": "Point", "coordinates": [ -90.0522, 20.3739 ] } },
{ "type": "Feature", "properties": { "id_geo_n": 2648, "nom_comerc": "CENTRO DE SALUD BÉCAL" }, "geometry": { "type": "Point", "coordinates": [ -90.027618, 20.440641 ] } },
{ "type": "Feature", "properties": { "id_geo_n": 2250, "nom_comerc": "CENTRO DE SALUD BÉCAL" }, "geometry": { "type": "Point", "coordinates": [ -90.027618, 20.440641 ] } },
{ "type": "Feature", "properties": { "id_geo_n": 2482, "nom_comerc": "HECELCHAKAN" }, "geometry": { "type": "Point", "coordinates": [ -90.142, 20.1693 ] } },
{ "type": "Feature", "properties": { "id_geo_n": 2460, "nom_comerc": "HECELCHAKAN 2" }, "geometry": { "type": "Point", "coordinates": [ -90.141081, 20.167266 ] } },
{ "type": "Feature", "properties": { "id_geo_n": 2427, "nom_comerc": "HECELCHAKÁN" }, "geometry": { "type": "Point", "coordinates": [ -90.1410734, 20.1673617 ] } },
{ "type": "Feature", "properties": { "id_geo_n": 2338, "nom_comerc": "CENTRO DE SALUD HECELCHAKÁN" }, "geometry": { "type": "Point", "coordinates": [ -90.1382802, 20.1830435 ] } },
{ "type": "Feature", "properties": { "id_geo_n": 2811, "nom_comerc": "CENTRO DE SALUD HECELCHAKÁN" }, "geometry": { "type": "Point", "coordinates": [ -90.1382802, 20.1830435 ] } },
{ "type": "Feature", "properties": { "id_geo_n": 2651, "nom_comerc": "CENTRO DE SALUD SAN ANTONIO SAHCABCHÉN" }, "geometry": { "type": "Point", "coordinates": [ -90.137117, 20.307949 ] } },
{ "type": "Feature", "properties": { "id_geo_n": 2252, "nom_comerc": "CENTRO DE SALUD SAN ANTONIO SAHCABCHÉN" }, "geometry": { "type": "Point", "coordinates": [ -90.137117, 20.307949 ] } },
{ "type": "Feature", "properties": { "id_geo_n": 2242, "nom_comerc": "UNIDAD BASICA DE REHABILITACION HECELCHAKAN" }, "geometry": { "type": "Point", "coordinates": [ -90.1356836, 20.189576 ] } },
{ "type": "Feature", "properties": { "id_geo_n": 2717, "nom_comerc": "CENTRO DE SALUD HECELCHAKÁN" }, "geometry": { "type": "Point", "coordinates": [ -90.1352, 20.1742 ] } },
{ "type": "Feature", "properties": { "id_geo_n": 2791, "nom_comerc": "UNIDAD MÉDICA MÓVIL P-2" }, "geometry": { "type": "Point", "coordinates": [ -90.1339, 20.1774 ] } },
{ "type": "Feature", "properties": { "id_geo_n": 2457, "nom_comerc": "HECELCHAKAN" }, "geometry": { "type": "Point", "coordinates": [ -90.1338889, 20.1769444 ] } },
{ "type": "Feature", "properties": { "id_geo_n": 2219, "nom_comerc": "DIF-HECELCHAKÁN" }, "geometry": { "type": "Point", "coordinates": [ -90.1332505, 20.1784027 ] } },
{ "type": "Feature", "properties": { "id_geo_n": 2430, "nom_comerc": "SANTA CRUZ (HECELCHAKÁN)" }, "geometry": { "type": "Point", "coordinates": [ -90.11899, 20.2044147 ] } },
{ "type": "Feature", "properties": { "id_geo_n": 2653, "nom_comerc": "CENTRO DE SALUD SANTA CRUZ PUEBLO" }, "geometry": { "type": "Point", "coordinates": [ -90.104194, 20.334103 ] } },
{ "type": "Feature", "properties": { "id_geo_n": 2254, "nom_comerc": "CENTRO DE SALUD SANTA CRUZ PUEBLO" }, "geometry": { "type": "Point", "coordinates": [ -90.104194, 20.334103 ] } },
{ "type": "Feature", "properties": { "id_geo_n": 2718, "nom_comerc": "CENTRO DE SALUD POC-BOC" }, "geometry": { "type": "Point", "coordinates": [ -90.10246, 20.237278 ] } },
{ "type": "Feature", "properties": { "id_geo_n": 2291, "nom_comerc": "CENTRO DE SALUD POC-BOC" }, "geometry": { "type": "Point", "coordinates": [ -90.10246, 20.237278 ] } },
{ "type": "Feature", "properties": { "id_geo_n": 2647, "nom_comerc": "CENTRO DE SALUD BACABCHÉN" }, "geometry": { "type": "Point", "coordinates": [ -90.060475, 20.287564 ] } },
{ "type": "Feature", "properties": { "id_geo_n": 2249, "nom_comerc": "CENTRO DE SALUD BACABCHÉN" }, "geometry": { "type": "Point", "coordinates": [ -90.060475, 20.287564 ] } },
{ "type": "Feature", "properties": { "id_geo_n": 2807, "nom_comerc": "CENTRO DE SALUD DE DZITBALCHÉ" }, "geometry": { "type": "Point", "coordinates": [ -90.059598, 20.3217372 ] } },
{ "type": "Feature", "properties": { "id_geo_n": 2334, "nom_comerc": "CENTRO DE SALUD DE DZITBALCHÉ" }, "geometry": { "type": "Point", "coordinates": [ -90.059598, 20.3217372 ] } },
{ "type": "Feature", "properties": { "id_geo_n": 2225, "nom_comerc": "UNIDAD BÁSICA DE REHABILITACIÓN DZITBALCHE" }, "geometry": { "type": "Point", "coordinates": [ -90.055968, 20.319317 ] } },
{ "type": "Feature", "properties": { "id_geo_n": 2649, "nom_comerc": "CENTRO DE SALUD DZITBALCHÉ" }, "geometry": { "type": "Point", "coordinates": [ -90.0557, 20.3191 ] } },
{ "type": "Feature", "properties": { "id_geo_n": 2350, "nom_comerc": "UNIDAD MÉDICA MÓVIL P-2" }, "geometry": { "type": "Point", "coordinates": [ -90.0376369, 20.1953349 ] } },
{ "type": "Feature", "properties": { "id_geo_n": 2428, "nom_comerc": "SAN VICENTE CUMPICH" }, "geometry": { "type": "Point", "coordinates": [ -89.97119, 20.18538 ] } },
{ "type": "Feature", "properties": { "id_geo_n": 2888, "nom_comerc": "UNIDAD MEDICA MOVIL P-45" }, "geometry": { "type": "Point", "coordinates": [ -89.843152, 19.909477 ] } },
{ "type": "Feature", "properties": { "id_geo_n": 2691, "nom_comerc": "CENTRO DE SALUD ISLA AGUADA" }, "geometry": { "type": "Point", "coordinates": [ -91.483871, 18.784474 ] } },
{ "type": "Feature", "properties": { "id_geo_n": 2688, "nom_comerc": "CENTRO DE SALUD ABELARDO L. RODRÍGUEZ" }, "geometry": { "type": "Point", "coordinates": [ -90.905545, 18.728135 ] } },
{ "type": "Feature", "properties": { "id_geo_n": 2712, "nom_comerc": "CENTRO DE SALUD LEY FEDERAL DE REFORMA AGRARIA" }, "geometry": { "type": "Point", "coordinates": [ -90.807018, 19.062565 ] } },
{ "type": "Feature", "properties": { "id_geo_n": 2828, "nom_comerc": "UNIDAD MÉDICA MÓVIL P-4" }, "geometry": { "type": "Point", "coordinates": [ -90.742648, 18.804708 ] } },
{ "type": "Feature", "properties": { "id_geo_n": 2704, "nom_comerc": "CENTRO DE SALUD SAN PABLO PIXTÚN" }, "geometry": { "type": "Point", "coordinates": [ -90.731543, 19.132218 ] } },
{ "type": "Feature", "properties": { "id_geo_n": 2705, "nom_comerc": "CENTRO DE SALUD REVOLUCIÓN" }, "geometry": { "type": "Point", "coordinates": [ -90.730934, 18.904256 ] } },
{ "type": "Feature", "properties": { "id_geo_n": 2709, "nom_comerc": "CENTRO DE SALUD XBACAB" }, "geometry": { "type": "Point", "coordinates": [ -90.722634, 18.939725 ] } },
{ "type": "Feature", "properties": { "id_geo_n": 2716, "nom_comerc": "CENTRO DE SALUD MIGUEL COLORADO" }, "geometry": { "type": "Point", "coordinates": [ -90.655349, 18.785343 ] } },
{ "type": "Feature", "properties": { "id_geo_n": 2713, "nom_comerc": "CENTRO DE SALUD 5 DE FEBRERO" }, "geometry": { "type": "Point", "coordinates": [ -90.633929, 18.855726 ] } },
{ "type": "Feature", "properties": { "id_geo_n": 2714, "nom_comerc": "CENTRO DE SALUD PIXOYAL" }, "geometry": { "type": "Point", "coordinates": [ -90.597923, 18.933261 ] } },
{ "type": "Feature", "properties": { "id_geo_n": 2881, "nom_comerc": "UNIDAD MEDICO MOVIL P-39" }, "geometry": { "type": "Point", "coordinates": [ -90.291178, 18.819983 ] } },
{ "type": "Feature", "properties": { "id_geo_n": 2843, "nom_comerc": "UNIDAD MÉDICA MÓVIL P-28" }, "geometry": { "type": "Point", "coordinates": [ -89.2916506, 18.8107139 ] } },
{ "type": "Feature", "properties": { "id_geo_n": 2689, "nom_comerc": "CENTRO DE SALUD CHICBUL" }, "geometry": { "type": "Point", "coordinates": [ -90.923746, 18.777189 ] } },
{ "type": "Feature", "properties": { "id_geo_n": 2693, "nom_comerc": "CENTRO DE SALUD LA CRISTALINA" }, "geometry": { "type": "Point", "coordinates": [ -91.055863, 18.729962 ] } },
{ "type": "Feature", "properties": { "id_geo_n": 2701, "nom_comerc": "CENTRO DE SALUD AQUILES SERDÁN (CHUINA)" }, "geometry": { "type": "Point", "coordinates": [ -90.713817, 18.963403 ] } },
{ "type": "Feature", "properties": { "id_geo_n": 2729, "nom_comerc": "CENTRO DE SALUD XCAN HA" }, "geometry": { "type": "Point", "coordinates": [ -89.334012, 19.100648 ] } },
{ "type": "Feature", "properties": { "id_geo_n": 2754, "nom_comerc": "CENTRO DE SALUD BENITO JUÁREZ III" }, "geometry": { "type": "Point", "coordinates": [ -90.270265, 18.752719 ] } },
{ "type": "Feature", "properties": { "id_geo_n": 2757, "nom_comerc": "UNIDAD MÉDICA MÓVIL P-28" }, "geometry": { "type": "Point", "coordinates": [ -89.2916506, 18.8107139 ] } },
{ "type": "Feature", "properties": { "id_geo_n": 2800, "nom_comerc": "C. S. FLOR DE CHIAPAS" }, "geometry": { "type": "Point", "coordinates": [ -90.2317, 18.7592 ] } },
{ "type": "Feature", "properties": { "id_geo_n": 2790, "nom_comerc": "UNIDAD MÉDICA MÓVIL P-4" }, "geometry": { "type": "Point", "coordinates": [ -90.742648, 18.804708 ] } },
{ "type": "Feature", "properties": { "id_geo_n": 2445, "nom_comerc": "BS 1 - FELIPE CARRILLO PUERTO" }, "geometry": { "type": "Point", "coordinates": [ -90.5217, 19.0926 ] } },
{ "type": "Feature", "properties": { "id_geo_n": 2311, "nom_comerc": "CENTRO DE SALUD BENITO JUÁREZ III" }, "geometry": { "type": "Point", "coordinates": [ -90.270265, 18.752719 ] } },
{ "type": "Feature", "properties": { "id_geo_n": 2352, "nom_comerc": "UNIDAD MÉDICA MÓVIL P-4" }, "geometry": { "type": "Point", "coordinates": [ -90.742648, 18.804708 ] } },
{ "type": "Feature", "properties": { "id_geo_n": 2367, "nom_comerc": "UNIDAD MÉDICA MÓVIL P-28" }, "geometry": { "type": "Point", "coordinates": [ -89.2916506, 18.8107139 ] } },
{ "type": "Feature", "properties": { "id_geo_n": 2386, "nom_comerc": "UNIDAD MEDICO MOVIL P-39" }, "geometry": { "type": "Point", "coordinates": [ -90.291178, 18.819983 ] } },
{ "type": "Feature", "properties": { "id_geo_n": 2422, "nom_comerc": "YOHALTÚN" }, "geometry": { "type": "Point", "coordinates": [ -90.3135353, 19.01234 ] } },
{ "type": "Feature", "properties": { "id_geo_n": 2423, "nom_comerc": "CHILAM-BALAM" }, "geometry": { "type": "Point", "coordinates": [ -90.24892, 19.00311 ] } },
{ "type": "Feature", "properties": { "id_geo_n": 2426, "nom_comerc": "JOSÉ MARÍA MORELOS Y PAVÓN (EL CERRITO)" }, "geometry": { "type": "Point", "coordinates": [ -90.7225227, 19.0922375 ] } },
{ "type": "Feature", "properties": { "id_geo_n": 2424, "nom_comerc": "FELIPE CARRILLO PUERTO (CHAMPOTÓN)" }, "geometry": { "type": "Point", "coordinates": [ -90.5236436, 19.0931952 ] } },
{ "type": "Feature", "properties": { "id_geo_n": 2411, "nom_comerc": "GENERAL IGNACIO GUTIÉRREZ" }, "geometry": { "type": "Point", "coordinates": [ -90.9436435, 18.8994355 ] } },
{ "type": "Feature", "properties": { "id_geo_n": 2414, "nom_comerc": "CHECUBUL" }, "geometry": { "type": "Point", "coordinates": [ -91.0103479, 18.8254036 ] } },
{ "type": "Feature", "properties": { "id_geo_n": 2236, "nom_comerc": "UNIDAD BÁSICA DE REHABILITACIÓN CHILAM BALAM" }, "geometry": { "type": "Point", "coordinates": [ -90.2479203, 19.0018349 ] } },
{ "type": "Feature", "properties": { "id_geo_n": 2267, "nom_comerc": "CENTRO DE SALUD ABELARDO L. RODRÍGUEZ" }, "geometry": { "type": "Point", "coordinates": [ -90.905545, 18.728135 ] } },
{ "type": "Feature", "properties": { "id_geo_n": 2270, "nom_comerc": "CENTRO DE SALUD ISLA AGUADA" }, "geometry": { "type": "Point", "coordinates": [ -91.483871, 18.784474 ] } },
{ "type": "Feature", "properties": { "id_geo_n": 2268, "nom_comerc": "CENTRO DE SALUD CHICBUL" }, "geometry": { "type": "Point", "coordinates": [ -90.923746, 18.777189 ] } },
{ "type": "Feature", "properties": { "id_geo_n": 2290, "nom_comerc": "CENTRO DE SALUD MIGUEL COLORADO" }, "geometry": { "type": "Point", "coordinates": [ -90.655349, 18.785343 ] } },
{ "type": "Feature", "properties": { "id_geo_n": 2288, "nom_comerc": "CENTRO DE SALUD PIXOYAL" }, "geometry": { "type": "Point", "coordinates": [ -90.597923, 18.933261 ] } },
{ "type": "Feature", "properties": { "id_geo_n": 2297, "nom_comerc": "CENTRO DE SALUD XCAN HA" }, "geometry": { "type": "Point", "coordinates": [ -89.334012, 19.100648 ] } },
{ "type": "Feature", "properties": { "id_geo_n": 2272, "nom_comerc": "CENTRO DE SALUD LA CRISTALINA" }, "geometry": { "type": "Point", "coordinates": [ -91.055863, 18.729962 ] } },
{ "type": "Feature", "properties": { "id_geo_n": 2279, "nom_comerc": "CENTRO DE SALUD SAN PABLO PIXTÚN" }, "geometry": { "type": "Point", "coordinates": [ -90.731543, 19.132218 ] } },
{ "type": "Feature", "properties": { "id_geo_n": 2276, "nom_comerc": "CENTRO DE SALUD AQUILES SERDÁN (CHUINA)" }, "geometry": { "type": "Point", "coordinates": [ -90.713817, 18.963403 ] } },
{ "type": "Feature", "properties": { "id_geo_n": 2283, "nom_comerc": "CENTRO DE SALUD XBACAB" }, "geometry": { "type": "Point", "coordinates": [ -90.722634, 18.939725 ] } },
{ "type": "Feature", "properties": { "id_geo_n": 2280, "nom_comerc": "CENTRO DE SALUD REVOLUCIÓN" }, "geometry": { "type": "Point", "coordinates": [ -90.730934, 18.904256 ] } },
{ "type": "Feature", "properties": { "id_geo_n": 2286, "nom_comerc": "CENTRO DE SALUD LEY FEDERAL DE REFORMA AGRARIA" }, "geometry": { "type": "Point", "coordinates": [ -90.807018, 19.062565 ] } },
{ "type": "Feature", "properties": { "id_geo_n": 2287, "nom_comerc": "CENTRO DE SALUD 5 DE FEBRERO" }, "geometry": { "type": "Point", "coordinates": [ -90.633929, 18.855726 ] } },
{ "type": "Feature", "properties": { "id_geo_n": 2698, "nom_comerc": "HOSPITAL COMUNITARIO DE CHAMPOTÓN \"DR.JOSÉ E. NAZAR RAIDEN" }, "geometry": { "type": "Point", "coordinates": [ -90.733363, 19.341048 ] } },
{ "type": "Feature", "properties": { "id_geo_n": 2481, "nom_comerc": "CHAMPOTÓN" }, "geometry": { "type": "Point", "coordinates": [ -90.7331, 19.3409 ] } },
{ "type": "Feature", "properties": { "id_geo_n": 2465, "nom_comerc": "UMFH 2 CHAMPOTÓN" }, "geometry": { "type": "Point", "coordinates": [ -90.7243489, 19.3574795 ] } },
{ "type": "Feature", "properties": { "id_geo_n": 2499, "nom_comerc": "CLINAVCHAMP" }, "geometry": { "type": "Point", "coordinates": [ -90.723681, 19.350433 ] } },
{ "type": "Feature", "properties": { "id_geo_n": 2448, "nom_comerc": "CHAMPOTON" }, "geometry": { "type": "Point", "coordinates": [ -90.7233, 19.3556 ] } },
{ "type": "Feature", "properties": { "id_geo_n": 2699, "nom_comerc": "CENTRO DE SALUD CHAMPOTÓN" }, "geometry": { "type": "Point", "coordinates": [ -90.720216, 19.357934 ] } },
{ "type": "Feature", "properties": { "id_geo_n": 2466, "nom_comerc": "UMF 3 LA JOYA" }, "geometry": { "type": "Point", "coordinates": [ -90.703509, 19.4785397 ] } },
{ "type": "Feature", "properties": { "id_geo_n": 2708, "nom_comerc": "CENTRO DE SALUD VILLAMADERO" }, "geometry": { "type": "Point", "coordinates": [ -90.699044, 19.527095 ] } },
{ "type": "Feature", "properties": { "id_geo_n": 2703, "nom_comerc": "CENTRO DE SALUD MOQUEL" }, "geometry": { "type": "Point", "coordinates": [ -90.672994, 19.353034 ] } },
{ "type": "Feature", "properties": { "id_geo_n": 2910, "nom_comerc": "UMEC-2 NUEVA ESPERANZA NUMERO 2 (SANTO DOMINGO)" }, "geometry": { "type": "Point", "coordinates": [ -90.640667, 19.196611 ] } },
{ "type": "Feature", "properties": { "id_geo_n": 2711, "nom_comerc": "CENTRO DE SALUD ULUMAL" }, "geometry": { "type": "Point", "coordinates": [ -90.623143, 19.273198 ] } },
{ "type": "Feature", "properties": { "id_geo_n": 2707, "nom_comerc": "CENTRO DE SALUD SIHOCHAC" }, "geometry": { "type": "Point", "coordinates": [ -90.58345, 19.500273 ] } },
{ "type": "Feature", "properties": { "id_geo_n": 2351, "nom_comerc": "UNIDAD MÉDICA MÓVIL P-3" }, "geometry": { "type": "Point", "coordinates": [ -90.554166, 19.321944 ] } },
{ "type": "Feature", "properties": { "id_geo_n": 2700, "nom_comerc": "UNIDAD MÉDICA MÓVIL P-3" }, "geometry": { "type": "Point", "coordinates": [ -90.554166, 19.321944 ] } },
{ "type": "Feature", "properties": { "id_geo_n": 2827, "nom_comerc": "UNIDAD MÉDICA MÓVIL P-3" }, "geometry": { "type": "Point", "coordinates": [ -90.554166, 19.321944 ] } },
{ "type": "Feature", "properties": { "id_geo_n": 2450, "nom_comerc": "SANTO DOMINGO KESTE" }, "geometry": { "type": "Point", "coordinates": [ -90.5115932, 19.5004637 ] } },
{ "type": "Feature", "properties": { "id_geo_n": 2452, "nom_comerc": "KANASAYAB II" }, "geometry": { "type": "Point", "coordinates": [ -90.5081231, 19.1653922 ] } },
{ "type": "Feature", "properties": { "id_geo_n": 2451, "nom_comerc": "KANASAYAB I" }, "geometry": { "type": "Point", "coordinates": [ -90.505556, 19.153611 ] } },
{ "type": "Feature", "properties": { "id_geo_n": 2715, "nom_comerc": "CENTRO DE SALUD VILLA DE GUADALUPE SAN DIMAS" }, "geometry": { "type": "Point", "coordinates": [ -90.461073, 19.26999 ] } },
{ "type": "Feature", "properties": { "id_geo_n": 2702, "nom_comerc": "CENTRO DE SALUD HOOL" }, "geometry": { "type": "Point", "coordinates": [ -90.445083, 19.513499 ] } },
{ "type": "Feature", "properties": { "id_geo_n": 2909, "nom_comerc": "UMEC-1 ADOLFO RUIZ CORTINEZ" }, "geometry": { "type": "Point", "coordinates": [ -90.359194, 19.476833 ] } },
{ "type": "Feature", "properties": { "id_geo_n": 2453, "nom_comerc": "QUETZAL EDZNÁ MÓDULO UNO" }, "geometry": { "type": "Point", "coordinates": [ -90.1049944, 19.4584485 ] } },
{ "type": "Feature", "properties": { "id_geo_n": 2454, "nom_comerc": "LOS LAURELES" }, "geometry": { "type": "Point", "coordinates": [ -89.9942627, 19.4890401 ] } },
{ "type": "Feature", "properties": { "id_geo_n": 2880, "nom_comerc": "UNIDAD MÉDICA MÓVIL P-38" }, "geometry": { "type": "Point", "coordinates": [ -89.806277, 19.422865 ] } },
{ "type": "Feature", "properties": { "id_geo_n": 2725, "nom_comerc": "CENTRO DE SALUD DZIBALCHÉN" }, "geometry": { "type": "Point", "coordinates": [ -89.731881, 19.459414 ] } },
{ "type": "Feature", "properties": { "id_geo_n": 2883, "nom_comerc": "UNIDAD MEDICA MÓVIL XMEJIA P-41" }, "geometry": { "type": "Point", "coordinates": [ -89.376563, 19.229177 ] } },
{ "type": "Feature", "properties": { "id_geo_n": 2387, "nom_comerc": "UNIDAD MEDICA MÓVIL XMEJIA P-41" }, "geometry": { "type": "Point", "coordinates": [ -89.376563, 19.229177 ] } },
{ "type": "Feature", "properties": { "id_geo_n": 2728, "nom_comerc": "CENTRO DE SALUD UKUM" }, "geometry": { "type": "Point", "coordinates": [ -89.335594, 19.241374 ] } },
{ "type": "Feature", "properties": { "id_geo_n": 2385, "nom_comerc": "UNIDAD MÉDICA MÓVIL P-38" }, "geometry": { "type": "Point", "coordinates": [ -89.806277, 19.422865 ] } },
{ "type": "Feature", "properties": { "id_geo_n": 2418, "nom_comerc": "ARELLANO" }, "geometry": { "type": "Point", "coordinates": [ -90.463311, 19.3774587 ] } },
{ "type": "Feature", "properties": { "id_geo_n": 2421, "nom_comerc": "PUSTUNICH" }, "geometry": { "type": "Point", "coordinates": [ -90.4783914, 19.1457667 ] } },
{ "type": "Feature", "properties": { "id_geo_n": 2425, "nom_comerc": "LIC. CARLOS SALINAS DE GORTARI MÓDULO UNO" }, "geometry": { "type": "Point", "coordinates": [ -90.2658661, 19.1511049 ] } },
{ "type": "Feature", "properties": { "id_geo_n": 2431, "nom_comerc": "CHUNCHINTOK" }, "geometry": { "type": "Point", "coordinates": [ -89.5850115, 19.3605662 ] } },
{ "type": "Feature", "properties": { "id_geo_n": 2410, "nom_comerc": "MELCHOR OCAMPO (CAMPECHE)" }, "geometry": { "type": "Point", "coordinates": [ -90.2264148, 19.373571 ] } },
{ "type": "Feature", "properties": { "id_geo_n": 2408, "nom_comerc": "PICH" }, "geometry": { "type": "Point", "coordinates": [ -90.1192409, 19.4867936 ] } },
{ "type": "Feature", "properties": { "id_geo_n": 2409, "nom_comerc": "ALFREDO V. BONFIL" }, "geometry": { "type": "Point", "coordinates": [ -90.1770659, 19.5284223 ] } },
{ "type": "Feature", "properties": { "id_geo_n": 2237, "nom_comerc": "UNIDAD BÁSICA DE REHABILITACIÓN \"ALFREDO V. BONFIL" }, "geometry": { "type": "Point", "coordinates": [ -90.1815477, 19.5297472 ] } },
{ "type": "Feature", "properties": { "id_geo_n": 2218, "nom_comerc": "SISTEMA DIF MUNICIPAL DE CHAMPOTÓN" }, "geometry": { "type": "Point", "coordinates": [ -90.7234166, 19.3563198 ] } },
{ "type": "Feature", "properties": { "id_geo_n": 2244, "nom_comerc": "UNIDAD BÁSICA DE REHABILITACIÓN UKUM" }, "geometry": { "type": "Point", "coordinates": [ -89.337642, 19.242282 ] } },
{ "type": "Feature", "properties": { "id_geo_n": 2289, "nom_comerc": "CENTRO DE SALUD VILLA DE GUADALUPE SAN DIMAS" }, "geometry": { "type": "Point", "coordinates": [ -90.461073, 19.26999 ] } },
{ "type": "Feature", "properties": { "id_geo_n": 2293, "nom_comerc": "CENTRO DE SALUD DZIBALCHÉN" }, "geometry": { "type": "Point", "coordinates": [ -89.731881, 19.459414 ] } },
{ "type": "Feature", "properties": { "id_geo_n": 2296, "nom_comerc": "CENTRO DE SALUD UKUM" }, "geometry": { "type": "Point", "coordinates": [ -89.335594, 19.241374 ] } },
{ "type": "Feature", "properties": { "id_geo_n": 2274, "nom_comerc": "HOSPITAL COMUNITARIO DE CHAMPOTÓN \"DR.JOSÉ E. NAZAR RAIDEN" }, "geometry": { "type": "Point", "coordinates": [ -90.733363, 19.341048 ] } },
{ "type": "Feature", "properties": { "id_geo_n": 2275, "nom_comerc": "CENTRO DE SALUD CHAMPOTÓN" }, "geometry": { "type": "Point", "coordinates": [ -90.720216, 19.357934 ] } },
{ "type": "Feature", "properties": { "id_geo_n": 2278, "nom_comerc": "CENTRO DE SALUD MOQUEL" }, "geometry": { "type": "Point", "coordinates": [ -90.672994, 19.353034 ] } },
{ "type": "Feature", "properties": { "id_geo_n": 2277, "nom_comerc": "CENTRO DE SALUD HOOL" }, "geometry": { "type": "Point", "coordinates": [ -90.445083, 19.513499 ] } },
{ "type": "Feature", "properties": { "id_geo_n": 2282, "nom_comerc": "CENTRO DE SALUD VILLAMADERO" }, "geometry": { "type": "Point", "coordinates": [ -90.699044, 19.527095 ] } },
{ "type": "Feature", "properties": { "id_geo_n": 2281, "nom_comerc": "CENTRO DE SALUD SIHOCHAC" }, "geometry": { "type": "Point", "coordinates": [ -90.58345, 19.500273 ] } },
{ "type": "Feature", "properties": { "id_geo_n": 2285, "nom_comerc": "CENTRO DE SALUD ULUMAL" }, "geometry": { "type": "Point", "coordinates": [ -90.623143, 19.273198 ] } },
{ "type": "Feature", "properties": { "id_geo_n": 2706, "nom_comerc": "CENTRO DE SALUD SEYBAPLAYA" }, "geometry": { "type": "Point", "coordinates": [ -90.6894, 19.6397 ] } },
{ "type": "Feature", "properties": { "id_geo_n": 2812, "nom_comerc": "CENTRO DE SALUD CON SERVICIOS AMPLIADOS DE SEYBAPLAYA" }, "geometry": { "type": "Point", "coordinates": [ -90.68484, 19.62816 ] } },
{ "type": "Feature", "properties": { "id_geo_n": 2339, "nom_comerc": "CENTRO DE SALUD CON SERVICIOS AMPLIADOS DE SEYBAPLAYA" }, "geometry": { "type": "Point", "coordinates": [ -90.68484, 19.62816 ] } },
{ "type": "Feature", "properties": { "id_geo_n": 2486, "nom_comerc": "SEYBAPLAYA" }, "geometry": { "type": "Point", "coordinates": [ -90.6838, 19.6317 ] } },
{ "type": "Feature", "properties": { "id_geo_n": 2710, "nom_comerc": "CENTRO DE SALUD XKEULIL" }, "geometry": { "type": "Point", "coordinates": [ -90.629053, 19.627396 ] } },
{ "type": "Feature", "properties": { "id_geo_n": 2335, "nom_comerc": "CENTRO DE SALUD LERMA" }, "geometry": { "type": "Point", "coordinates": [ -90.608735, 19.795176 ] } },
{ "type": "Feature", "properties": { "id_geo_n": 2808, "nom_comerc": "CENTRO DE SALUD LERMA" }, "geometry": { "type": "Point", "coordinates": [ -90.608735, 19.795176 ] } },
{ "type": "Feature", "properties": { "id_geo_n": 2908, "nom_comerc": "SANNAFARM \"VIDA NUEVA\"" }, "geometry": { "type": "Point", "coordinates": [ -90.60756, 19.79866 ] } },
{ "type": "Feature", "properties": { "id_geo_n": 2501, "nom_comerc": "SISTEMA DE ATENCIÓN A NIÑOS, NIÑAS Y ADOLESCENTES FARMACODEPENDIENTES DEL ESTADO DE CAMPECHE \"VIDA NUEVA" }, "geometry": { "type": "Point", "coordinates": [ -90.6075109, 19.7985401 ] } },
{ "type": "Feature", "properties": { "id_geo_n": 2824, "nom_comerc": "ALMACEN GENERAL CHINÁ" }, "geometry": { "type": "Point", "coordinates": [ -90.4996929, 19.7855376 ] } },
{ "type": "Feature", "properties": { "id_geo_n": 2407, "nom_comerc": "CHINÁ" }, "geometry": { "type": "Point", "coordinates": [ -90.4955692, 19.7691804 ] } },
{ "type": "Feature", "properties": { "id_geo_n": 2658, "nom_comerc": "UNIDAD MÉDICA MÓVIL HOMOBO P-17" }, "geometry": { "type": "Point", "coordinates": [ -90.4913566, 19.6081948 ] } },
{ "type": "Feature", "properties": { "id_geo_n": 2376, "nom_comerc": "UNIDAD MEDICA MOVIL HOBOMO P-17" }, "geometry": { "type": "Point", "coordinates": [ -90.4913611, 19.608194 ] } },
{ "type": "Feature", "properties": { "id_geo_n": 2856, "nom_comerc": "UNIDAD MEDICA MOVIL HOBOMO P-17" }, "geometry": { "type": "Point", "coordinates": [ -90.4913611, 19.608194 ] } },
{ "type": "Feature", "properties": { "id_geo_n": 2349, "nom_comerc": "UNIDAD MÉDICA MÓVIL P-1" }, "geometry": { "type": "Point", "coordinates": [ -90.4198695, 19.770719 ] } },
{ "type": "Feature", "properties": { "id_geo_n": 2656, "nom_comerc": "UNIDAD MÉDICA MÓVIL P-1" }, "geometry": { "type": "Point", "coordinates": [ -90.4198695, 19.770719 ] } },
{ "type": "Feature", "properties": { "id_geo_n": 2825, "nom_comerc": "UNIDAD MÉDICA MÓVIL P-1" }, "geometry": { "type": "Point", "coordinates": [ -90.4198695, 19.770719 ] } },
{ "type": "Feature", "properties": { "id_geo_n": 2679, "nom_comerc": "CENTRO DE SALUD TIXMUCUY" }, "geometry": { "type": "Point", "coordinates": [ -90.3147, 19.5816 ] } },
{ "type": "Feature", "properties": { "id_geo_n": 2264, "nom_comerc": "CENTRO DE SALUD TIKINMUL" }, "geometry": { "type": "Point", "coordinates": [ -90.22628, 19.766445 ] } },
{ "type": "Feature", "properties": { "id_geo_n": 2678, "nom_comerc": "CENTRO DE SALUD TIKINMUL" }, "geometry": { "type": "Point", "coordinates": [ -90.22628, 19.766445 ] } },
{ "type": "Feature", "properties": { "id_geo_n": 2432, "nom_comerc": "ICH-EK" }, "geometry": { "type": "Point", "coordinates": [ -89.9648782, 19.7341413 ] } },
{ "type": "Feature", "properties": { "id_geo_n": 2842, "nom_comerc": "UNIDAD MÉDICA MÓVIL P-27" }, "geometry": { "type": "Point", "coordinates": [ -89.8710932, 19.6513801 ] } },
{ "type": "Feature", "properties": { "id_geo_n": 2366, "nom_comerc": "UNIDAD MÉDICA MÓVIL P-27" }, "geometry": { "type": "Point", "coordinates": [ -89.8710932, 19.6513801 ] } },
{ "type": "Feature", "properties": { "id_geo_n": 2721, "nom_comerc": "UNIDAD MÉDICA MÓVIL P-27" }, "geometry": { "type": "Point", "coordinates": [ -89.8710932, 19.6513801 ] } },
{ "type": "Feature", "properties": { "id_geo_n": 2378, "nom_comerc": "UNIDAD MEDICA MOVIL P-45 XCUPIL" }, "geometry": { "type": "Point", "coordinates": [ -89.8613544, 19.6675003 ] } },
{ "type": "Feature", "properties": { "id_geo_n": 2858, "nom_comerc": "UNIDAD MEDICA MOVIL P-45 XCUPIL" }, "geometry": { "type": "Point", "coordinates": [ -89.8613544, 19.6675003 ] } },
{ "type": "Feature", "properties": { "id_geo_n": 2803, "nom_comerc": "HOSPITAL COMUNITARIO DE HOPELCHEN" }, "geometry": { "type": "Point", "coordinates": [ -89.847586, 19.754539 ] } },
{ "type": "Feature", "properties": { "id_geo_n": 2331, "nom_comerc": "HOSPITAL COMUNITARIO DE HOPELCHEN" }, "geometry": { "type": "Point", "coordinates": [ -89.847586, 19.754539 ] } },
{ "type": "Feature", "properties": { "id_geo_n": 2243, "nom_comerc": "UNIDAD BÁSICA DE REHABILITACIÓN HOPÉLCHEN" }, "geometry": { "type": "Point", "coordinates": [ -89.8468473, 19.7465771 ] } },
{ "type": "Feature", "properties": { "id_geo_n": 2483, "nom_comerc": "HOPELCHEN" }, "geometry": { "type": "Point", "coordinates": [ -89.8468, 19.7449 ] } },
{ "type": "Feature", "properties": { "id_geo_n": 2220, "nom_comerc": "SISTEMA DIF MUNICIPAL DE HOPELCHÉN" }, "geometry": { "type": "Point", "coordinates": [ -89.8456825, 19.7450971 ] } },
{ "type": "Feature", "properties": { "id_geo_n": 2720, "nom_comerc": "HOSPITAL INTEGRAL DE HOPELCHÉN" }, "geometry": { "type": "Point", "coordinates": [ -89.8444926, 19.7453931 ] } },
{ "type": "Feature", "properties": { "id_geo_n": 2722, "nom_comerc": "MÉDICO-DENTAL P-37" }, "geometry": { "type": "Point", "coordinates": [ -89.8444, 19.7476 ] } },
{ "type": "Feature", "properties": { "id_geo_n": 2467, "nom_comerc": "UMF 8 HOPELCHEN" }, "geometry": { "type": "Point", "coordinates": [ -89.8437526, 19.7444335 ] } },
{ "type": "Feature", "properties": { "id_geo_n": 2284, "nom_comerc": "CENTRO DE SALUD XKEULIL" }, "geometry": { "type": "Point", "coordinates": [ -90.629053, 19.627396 ] } },
{ "type": "Feature", "properties": { "id_geo_n": 2726, "nom_comerc": "CENTRO DE SALUD VICENTE GUERRERO (ITURBIDE)" }, "geometry": { "type": "Point", "coordinates": [ -89.600835, 19.58076 ] } },
{ "type": "Feature", "properties": { "id_geo_n": 2294, "nom_comerc": "CENTRO DE SALUD VICENTE GUERRERO (ITURBIDE)" }, "geometry": { "type": "Point", "coordinates": [ -89.600835, 19.58076 ] } },
{ "type": "Feature", "properties": { "id_geo_n": 2892, "nom_comerc": "UNIDAD MEDICA MOVIL P-49" }, "geometry": { "type": "Point", "coordinates": [ -92.465238, 18.645004 ] } },
{ "type": "Feature", "properties": { "id_geo_n": 2862, "nom_comerc": "UNIDAD MEDICA MOVIL P-49 NUEVO CAMPECHITO" }, "geometry": { "type": "Point", "coordinates": [ -92.465238, 18.645004 ] } },
{ "type": "Feature", "properties": { "id_geo_n": 2692, "nom_comerc": "CENTRO DE SALUD EMILIANO ZAPATA" }, "geometry": { "type": "Point", "coordinates": [ -92.310591, 18.664714 ] } },
{ "type": "Feature", "properties": { "id_geo_n": 2685, "nom_comerc": "CENTRO DE SALUD NUEVO PROGRESO" }, "geometry": { "type": "Point", "coordinates": [ -92.2895, 18.6214 ] } },
{ "type": "Feature", "properties": { "id_geo_n": 2805, "nom_comerc": "CENTRO DE SALUD NUEVO PROGRESO" }, "geometry": { "type": "Point", "coordinates": [ -92.289503, 18.621321 ] } },
{ "type": "Feature", "properties": { "id_geo_n": 2690, "nom_comerc": "CENTRO AVANZADO DE ATENCIÓN PRIMARIA A LA SALUD SAN ANTONIO CÁRDENAS" }, "geometry": { "type": "Point", "coordinates": [ -92.221979, 18.617387 ] } },
{ "type": "Feature", "properties": { "id_geo_n": 2686, "nom_comerc": "CENTRO DE SALUD ATASTA" }, "geometry": { "type": "Point", "coordinates": [ -92.1103, 18.6202 ] } },
{ "type": "Feature", "properties": { "id_geo_n": 2813, "nom_comerc": "CENTRO DE SALUD ATASTA" }, "geometry": { "type": "Point", "coordinates": [ -92.099765, 18.619653 ] } },
{ "type": "Feature", "properties": { "id_geo_n": 2687, "nom_comerc": "CENTRO DE SALUD PUERTO RICO" }, "geometry": { "type": "Point", "coordinates": [ -91.93952, 18.620689 ] } },
{ "type": "Feature", "properties": { "id_geo_n": 2498, "nom_comerc": "HOSNAVCARM" }, "geometry": { "type": "Point", "coordinates": [ -91.8425142, 18.6488174 ] } },
{ "type": "Feature", "properties": { "id_geo_n": 2474, "nom_comerc": "CSS CIUDAD DEL CARMEN" }, "geometry": { "type": "Point", "coordinates": [ -91.8408305, 18.6427293 ] } },
{ "type": "Feature", "properties": { "id_geo_n": 2464, "nom_comerc": "HGZMF 4 CD. DEL CARMEN" }, "geometry": { "type": "Point", "coordinates": [ -91.8400758, 18.6431319 ] } },
{ "type": "Feature", "properties": { "id_geo_n": 2870, "nom_comerc": "OFICINAS JURISDICCIONALES" }, "geometry": { "type": "Point", "coordinates": [ -91.83556, 18.657121 ] } },
{ "type": "Feature", "properties": { "id_geo_n": 2441, "nom_comerc": "CONQUISTA CAMPESINA" }, "geometry": { "type": "Point", "coordinates": [ -91.8308, 18.6433 ] } },
{ "type": "Feature", "properties": { "id_geo_n": 2442, "nom_comerc": "NUEVA CHONTALPA" }, "geometry": { "type": "Point", "coordinates": [ -91.8308, 18.6433 ] } },
{ "type": "Feature", "properties": { "id_geo_n": 2449, "nom_comerc": "CIUDAD DEL CARMEN" }, "geometry": { "type": "Point", "coordinates": [ -91.8308, 18.6433 ] } },
{ "type": "Feature", "properties": { "id_geo_n": 2684, "nom_comerc": "CENTRO DE SALUD CARMEN" }, "geometry": { "type": "Point", "coordinates": [ -91.8246, 18.6507 ] } },
{ "type": "Feature", "properties": { "id_geo_n": 2802, "nom_comerc": "U. M. CARMEN" }, "geometry": { "type": "Point", "coordinates": [ -91.8221, 18.6482 ] } },
{ "type": "Feature", "properties": { "id_geo_n": 2895, "nom_comerc": "CENTRO COMUNITARIO DE SALUD MENTAL Y ADICCIONES CARMEN" }, "geometry": { "type": "Point", "coordinates": [ -91.821736, 18.6460527 ] } },
{ "type": "Feature", "properties": { "id_geo_n": 2899, "nom_comerc": "UNEME SORYD CIUDAD DEL CARMEN" }, "geometry": { "type": "Point", "coordinates": [ -91.8214255, 18.6457023 ] } },
{ "type": "Feature", "properties": { "id_geo_n": 2879, "nom_comerc": "UNEME CAPASITS" }, "geometry": { "type": "Point", "coordinates": [ -91.821332, 18.645768 ] } },
{ "type": "Feature", "properties": { "id_geo_n": 2680, "nom_comerc": "H.G. MA. SOCORRO QUIROGA AGUILAR" }, "geometry": { "type": "Point", "coordinates": [ -91.820543, 18.646634 ] } },
{ "type": "Feature", "properties": { "id_geo_n": 2490, "nom_comerc": "HOSPITAL GENERAL CD. DEL CARMEN" }, "geometry": { "type": "Point", "coordinates": [ -91.8194119, 18.6448516 ] } },
{ "type": "Feature", "properties": { "id_geo_n": 2502, "nom_comerc": "MODULO DE SALUD PERIFERICO" }, "geometry": { "type": "Point", "coordinates": [ -91.8153898, 18.6400154 ] } },
{ "type": "Feature", "properties": { "id_geo_n": 2480, "nom_comerc": "CD. DEL CARMEN" }, "geometry": { "type": "Point", "coordinates": [ -91.8145, 18.6497 ] } },
{ "type": "Feature", "properties": { "id_geo_n": 2874, "nom_comerc": "ALMACÉN JURISDICCIONAL" }, "geometry": { "type": "Point", "coordinates": [ -91.8078, 18.6499 ] } },
{ "type": "Feature", "properties": { "id_geo_n": 2683, "nom_comerc": "MÉDICO-DENTAL P-20" }, "geometry": { "type": "Point", "coordinates": [ -91.8078, 18.6499 ] } },
{ "type": "Feature", "properties": { "id_geo_n": 2814, "nom_comerc": "CENTRO DE SALUD CARMEN" }, "geometry": { "type": "Point", "coordinates": [ -91.799124, 18.656209 ] } },
{ "type": "Feature", "properties": { "id_geo_n": 2491, "nom_comerc": "CLINICA DE 1ER. NIVEL CD DEL CARMEN" }, "geometry": { "type": "Point", "coordinates": [ -91.7846392, 18.6605144 ] } },
{ "type": "Feature", "properties": { "id_geo_n": 2470, "nom_comerc": "UMF 12 CD. DEL CARMEN" }, "geometry": { "type": "Point", "coordinates": [ -91.783522, 18.6468052 ] } },
{ "type": "Feature", "properties": { "id_geo_n": 2477, "nom_comerc": "HOSPITAL DE GINECO PEDIATRIA NO. 15" }, "geometry": { "type": "Point", "coordinates": [ -91.7705556, 18.6536111 ] } },
{ "type": "Feature", "properties": { "id_geo_n": 2503, "nom_comerc": "MODULO DE SALUD MORELOS" }, "geometry": { "type": "Point", "coordinates": [ -91.8269173, 18.6576298 ] } },
{ "type": "Feature", "properties": { "id_geo_n": 2332, "nom_comerc": "CENTRO DE SALUD NUEVO PROGRESO" }, "geometry": { "type": "Point", "coordinates": [ -92.289503, 18.621321 ] } },
{ "type": "Feature", "properties": { "id_geo_n": 2340, "nom_comerc": "CENTRO DE SALUD ATASTA" }, "geometry": { "type": "Point", "coordinates": [ -92.099765, 18.619653 ] } },
{ "type": "Feature", "properties": { "id_geo_n": 2341, "nom_comerc": "CENTRO DE SALUD CARMEN" }, "geometry": { "type": "Point", "coordinates": [ -91.799124, 18.656209 ] } },
{ "type": "Feature", "properties": { "id_geo_n": 2393, "nom_comerc": "CENTRO COMUNITARIO DE SALUD MENTAL Y ADICCIONES CARMEN" }, "geometry": { "type": "Point", "coordinates": [ -91.821736, 18.6460527 ] } },
{ "type": "Feature", "properties": { "id_geo_n": 2396, "nom_comerc": "UNEME SORYD CIUDAD DEL CARMEN" }, "geometry": { "type": "Point", "coordinates": [ -91.8214255, 18.6457023 ] } },
{ "type": "Feature", "properties": { "id_geo_n": 2382, "nom_comerc": "UNIDAD MEDICA MOVIL P-49 NUEVO CAMPECHITO" }, "geometry": { "type": "Point", "coordinates": [ -92.465238, 18.645004 ] } },
{ "type": "Feature", "properties": { "id_geo_n": 2209, "nom_comerc": "CIJ CIUDAD DEL CARMEN" }, "geometry": { "type": "Point", "coordinates": [ -91.8336239, 18.6454593 ] } },
{ "type": "Feature", "properties": { "id_geo_n": 2212, "nom_comerc": "CRUZ ROJA MEXICANA DELEGACIÓN LOCAL CARMEN" }, "geometry": { "type": "Point", "coordinates": [ -91.8308, 18.6433 ] } },
{ "type": "Feature", "properties": { "id_geo_n": 2266, "nom_comerc": "CENTRO DE SALUD PUERTO RICO" }, "geometry": { "type": "Point", "coordinates": [ -91.93952, 18.620689 ] } },
{ "type": "Feature", "properties": { "id_geo_n": 2265, "nom_comerc": "H.G. MA. SOCORRO QUIROGA AGUILAR" }, "geometry": { "type": "Point", "coordinates": [ -91.820543, 18.646634 ] } },
{ "type": "Feature", "properties": { "id_geo_n": 2271, "nom_comerc": "CENTRO DE SALUD EMILIANO ZAPATA" }, "geometry": { "type": "Point", "coordinates": [ -92.310591, 18.664714 ] } },
{ "type": "Feature", "properties": { "id_geo_n": 2269, "nom_comerc": "CENTRO AVANZADO DE ATENCIÓN PRIMARIA A LA SALUD SAN ANTONIO CÁRDENAS" }, "geometry": { "type": "Point", "coordinates": [ -92.221979, 18.617387 ] } },
{ "type": "Feature", "properties": { "id_geo_n": 2246, "nom_comerc": "SERVICIO MEDICO FORENSE CARMEN" }, "geometry": { "type": "Point", "coordinates": [ -91.8194841, 18.6421589 ] } },
{ "type": "Feature", "properties": { "id_geo_n": 2436, "nom_comerc": "RIBERA SANTA CRUZ" }, "geometry": { "type": "Point", "coordinates": [ -92.1025144, 18.2898106 ] } },
{ "type": "Feature", "properties": { "id_geo_n": 2342, "nom_comerc": "HOSPITAL DE PALIZADA" }, "geometry": { "type": "Point", "coordinates": [ -92.100193, 18.255417 ] } },
{ "type": "Feature", "properties": { "id_geo_n": 2815, "nom_comerc": "HOSPITAL DE PALIZADA" }, "geometry": { "type": "Point", "coordinates": [ -92.100193, 18.255417 ] } },
{ "type": "Feature", "properties": { "id_geo_n": 2468, "nom_comerc": "UMF 9 PALIZADA" }, "geometry": { "type": "Point", "coordinates": [ -92.097844, 18.2555882 ] } },
{ "type": "Feature", "properties": { "id_geo_n": 2300, "nom_comerc": "CENTRO DE SALUD RIBERA SANTA ISABEL" }, "geometry": { "type": "Point", "coordinates": [ -92.09498, 18.333368 ] } },
{ "type": "Feature", "properties": { "id_geo_n": 2735, "nom_comerc": "CENTRO DE SALUD RIBERA SANTA ISABEL" }, "geometry": { "type": "Point", "coordinates": [ -92.09498, 18.333368 ] } },
{ "type": "Feature", "properties": { "id_geo_n": 2487, "nom_comerc": "PALIZADA" }, "geometry": { "type": "Point", "coordinates": [ -92.09, 18.254 ] } },
{ "type": "Feature", "properties": { "id_geo_n": 2730, "nom_comerc": "HOSPITAL INTEGRAL DE PALIZADA" }, "geometry": { "type": "Point", "coordinates": [ -92.0883394, 18.2550324 ] } },
{ "type": "Feature", "properties": { "id_geo_n": 2374, "nom_comerc": "UNIDAD MÉDICA MÓVIL P-35" }, "geometry": { "type": "Point", "coordinates": [ -92.0642758, 18.2424925 ] } },
{ "type": "Feature", "properties": { "id_geo_n": 2732, "nom_comerc": "UNIDAD MÉDICA MÓVIL P-35" }, "geometry": { "type": "Point", "coordinates": [ -92.0642758, 18.2424925 ] } },
{ "type": "Feature", "properties": { "id_geo_n": 2852, "nom_comerc": "UNIDAD MÉDICA MÓVIL P-35" }, "geometry": { "type": "Point", "coordinates": [ -92.0642758, 18.2424925 ] } },
{ "type": "Feature", "properties": { "id_geo_n": 2224, "nom_comerc": "SISTEMA DIF MUNICIPAL DE PALIZADA" }, "geometry": { "type": "Point", "coordinates": [ -92.0566, 18.2291 ] } },
{ "type": "Feature", "properties": { "id_geo_n": 2734, "nom_comerc": "CENTRO DE SALUD RIBERA DE TILA" }, "geometry": { "type": "Point", "coordinates": [ -92.054675, 18.226803 ] } },
{ "type": "Feature", "properties": { "id_geo_n": 2299, "nom_comerc": "CENTRO DE SALUD RIBERA DE TILA" }, "geometry": { "type": "Point", "coordinates": [ -92.054675, 18.226803 ] } },
{ "type": "Feature", "properties": { "id_geo_n": 2731, "nom_comerc": "UNIDAD MÉDICA MÓVIL P-34" }, "geometry": { "type": "Point", "coordinates": [ -92.0087272, 18.2653056 ] } },
{ "type": "Feature", "properties": { "id_geo_n": 2851, "nom_comerc": "UNIDAD MÉDICA MÓVIL P-34" }, "geometry": { "type": "Point", "coordinates": [ -92.0087272, 18.2653056 ] } },
{ "type": "Feature", "properties": { "id_geo_n": 2373, "nom_comerc": "UNIDAD MÉDICA MÓVIL P-34" }, "geometry": { "type": "Point", "coordinates": [ -92.0087272, 18.2653056 ] } },
{ "type": "Feature", "properties": { "id_geo_n": 2737, "nom_comerc": "CENTRO DE SALUD RIBERA LAGÓN DULCE" }, "geometry": { "type": "Point", "coordinates": [ -91.9208, 18.3321 ] } },
{ "type": "Feature", "properties": { "id_geo_n": 2833, "nom_comerc": "UNIDAD MÉDICA MÓVIL P-9" }, "geometry": { "type": "Point", "coordinates": [ -91.536059, 18.204699 ] } },
{ "type": "Feature", "properties": { "id_geo_n": 2357, "nom_comerc": "UNIDAD MÉDICA MÓVIL P-9" }, "geometry": { "type": "Point", "coordinates": [ -91.536059, 18.204699 ] } },
{ "type": "Feature", "properties": { "id_geo_n": 2682, "nom_comerc": "UNIDAD MÉDICA MÓVIL P-9" }, "geometry": { "type": "Point", "coordinates": [ -91.536059, 18.204699 ] } },
{ "type": "Feature", "properties": { "id_geo_n": 2806, "nom_comerc": "CENTRO DE SALUD AGUACATAL" }, "geometry": { "type": "Point", "coordinates": [ -91.509654, 18.214696 ] } },
{ "type": "Feature", "properties": { "id_geo_n": 2333, "nom_comerc": "CENTRO DE SALUD AGUACATAL" }, "geometry": { "type": "Point", "coordinates": [ -91.509654, 18.214696 ] } },
{ "type": "Feature", "properties": { "id_geo_n": 2695, "nom_comerc": "CENTRO DE SALUD AGUACATAL" }, "geometry": { "type": "Point", "coordinates": [ -91.5093, 18.2153 ] } },
{ "type": "Feature", "properties": { "id_geo_n": 2913, "nom_comerc": "UMEC-5 IGNACIO ZARAGOZA" }, "geometry": { "type": "Point", "coordinates": [ -91.3055, 18.387833 ] } },
{ "type": "Feature", "properties": { "id_geo_n": 2697, "nom_comerc": "CENTRO DE SALUD OJO DE AGUA" }, "geometry": { "type": "Point", "coordinates": [ -91.218841, 18.340148 ] } },
{ "type": "Feature", "properties": { "id_geo_n": 2831, "nom_comerc": "UNIDAD MÉDICA MÓVIL P-7" }, "geometry": { "type": "Point", "coordinates": [ -91.188315, 18.395335 ] } },
{ "type": "Feature", "properties": { "id_geo_n": 2355, "nom_comerc": "UNIDAD MÉDICA MÓVIL P-7" }, "geometry": { "type": "Point", "coordinates": [ -91.188315, 18.395335 ] } },
{ "type": "Feature", "properties": { "id_geo_n": 2681, "nom_comerc": "UNIDAD MÉDICA MÓVIL P-7" }, "geometry": { "type": "Point", "coordinates": [ -91.188315, 18.395335 ] } },
{ "type": "Feature", "properties": { "id_geo_n": 2912, "nom_comerc": "UMEC-4 LA NUEVA ESPERANZA" }, "geometry": { "type": "Point", "coordinates": [ -91.1199197, 18.4883803 ] } },
{ "type": "Feature", "properties": { "id_geo_n": 2775, "nom_comerc": "CENTRO DE SALUD BENITO JUÁREZ I" }, "geometry": { "type": "Point", "coordinates": [ -91.09838, 18.277281 ] } },
{ "type": "Feature", "properties": { "id_geo_n": 2778, "nom_comerc": "CENTRO DE SALUD ESTADO DE MÉXICO" }, "geometry": { "type": "Point", "coordinates": [ -91.09838, 18.277281 ] } },
{ "type": "Feature", "properties": { "id_geo_n": 2317, "nom_comerc": "CENTRO DE SALUD BENITO JUÁREZ I" }, "geometry": { "type": "Point", "coordinates": [ -91.09838, 18.277281 ] } },
{ "type": "Feature", "properties": { "id_geo_n": 2834, "nom_comerc": "UNIDAD MÉDICA MÓVIL P-10" }, "geometry": { "type": "Point", "coordinates": [ -91.0626481, 18.2229997 ] } },
{ "type": "Feature", "properties": { "id_geo_n": 2768, "nom_comerc": "UNIDAD MÉDICA MÓVIL P-10" }, "geometry": { "type": "Point", "coordinates": [ -91.0626481, 18.2229997 ] } },
{ "type": "Feature", "properties": { "id_geo_n": 2358, "nom_comerc": "UNIDAD MÉDICA MÓVIL P-10" }, "geometry": { "type": "Point", "coordinates": [ -91.0626481, 18.2229997 ] } },
{ "type": "Feature", "properties": { "id_geo_n": 2485, "nom_comerc": "CANDELARIA" }, "geometry": { "type": "Point", "coordinates": [ -91.0471, 18.1849 ] } },
{ "type": "Feature", "properties": { "id_geo_n": 2773, "nom_comerc": "MÉDICO-DENTAL P-19" }, "geometry": { "type": "Point", "coordinates": [ -91.045, 18.191 ] } },
{ "type": "Feature", "properties": { "id_geo_n": 2456, "nom_comerc": "CANDELARIA" }, "geometry": { "type": "Point", "coordinates": [ -91.0445525, 18.1840181 ] } },
{ "type": "Feature", "properties": { "id_geo_n": 2801, "nom_comerc": "U. M. CANDELARIA" }, "geometry": { "type": "Point", "coordinates": [ -91.0381, 18.1795 ] } },
{ "type": "Feature", "properties": { "id_geo_n": 2896, "nom_comerc": "CENTRO COMUNITARIO DE SALUD MENTAL Y ADICCIONES CANDELARIA" }, "geometry": { "type": "Point", "coordinates": [ -91.037628, 18.185422 ] } },
{ "type": "Feature", "properties": { "id_geo_n": 2394, "nom_comerc": "CENTRO COMUNITARIO DE SALUD MENTAL Y ADICCIONES CANDELARIA" }, "geometry": { "type": "Point", "coordinates": [ -91.037628, 18.185422 ] } },
{ "type": "Feature", "properties": { "id_geo_n": 2766, "nom_comerc": "HOSPITAL COMUNITARIO DE CANDELARIA" }, "geometry": { "type": "Point", "coordinates": [ -91.037132, 18.18522 ] } },
{ "type": "Feature", "properties": { "id_geo_n": 2315, "nom_comerc": "HOSPITAL COMUNITARIO DE CANDELARIA" }, "geometry": { "type": "Point", "coordinates": [ -91.037132, 18.18522 ] } },
{ "type": "Feature", "properties": { "id_geo_n": 2767, "nom_comerc": "CENTRO DE SALUD CANDELARIA" }, "geometry": { "type": "Point", "coordinates": [ -91.037019, 18.185709 ] } },
{ "type": "Feature", "properties": { "id_geo_n": 2914, "nom_comerc": "UMEC-6 PEJELAGARTO" }, "geometry": { "type": "Point", "coordinates": [ -90.995417, 18.186833 ] } },
{ "type": "Feature", "properties": { "id_geo_n": 2438, "nom_comerc": "BENITO JUÁREZ (LA POLLA)" }, "geometry": { "type": "Point", "coordinates": [ -90.975464, 18.378713 ] } },
{ "type": "Feature", "properties": { "id_geo_n": 2780, "nom_comerc": "CENTRO DE SALUD MIGUEL ALEMÁN" }, "geometry": { "type": "Point", "coordinates": [ -90.952995, 18.243121 ] } },
{ "type": "Feature", "properties": { "id_geo_n": 2320, "nom_comerc": "CENTRO DE SALUD MIGUEL ALEMÁN" }, "geometry": { "type": "Point", "coordinates": [ -90.952995, 18.243121 ] } },
{ "type": "Feature", "properties": { "id_geo_n": 2751, "nom_comerc": "CENTRO DE SALUD LA VICTORIA" }, "geometry": { "type": "Point", "coordinates": [ -90.925709, 18.492225 ] } },
{ "type": "Feature", "properties": { "id_geo_n": 2308, "nom_comerc": "CENTRO DE SALUD LA VICTORIA" }, "geometry": { "type": "Point", "coordinates": [ -90.925709, 18.492225 ] } },
{ "type": "Feature", "properties": { "id_geo_n": 2749, "nom_comerc": "CENTRO DE SALUD LUNA" }, "geometry": { "type": "Point", "coordinates": [ -90.899891, 18.295215 ] } },
{ "type": "Feature", "properties": { "id_geo_n": 2306, "nom_comerc": "CENTRO DE SALUD LUNA" }, "geometry": { "type": "Point", "coordinates": [ -90.899891, 18.295215 ] } },
{ "type": "Feature", "properties": { "id_geo_n": 2416, "nom_comerc": "CONQUISTA CAMPESINA" }, "geometry": { "type": "Point", "coordinates": [ -91.2904435, 18.1782005 ] } },
{ "type": "Feature", "properties": { "id_geo_n": 2417, "nom_comerc": "NUEVA CHONTALPA" }, "geometry": { "type": "Point", "coordinates": [ -91.0922188, 18.4774702 ] } },
{ "type": "Feature", "properties": { "id_geo_n": 2404, "nom_comerc": "CENTRO DE SALUD LUNA" }, "geometry": { "type": "Point", "coordinates": [ -90.8992438, 18.2955183 ] } },
{ "type": "Feature", "properties": { "id_geo_n": 2227, "nom_comerc": "UNIDAD BÁSICA DE REHABILITACIÓN DE CANDELARIA" }, "geometry": { "type": "Point", "coordinates": [ -91.045922, 18.185732 ] } },
{ "type": "Feature", "properties": { "id_geo_n": 2232, "nom_comerc": "UNIDAD BÁSICA DE REHABILITACIÓN CONQUISTA CAMPESINA" }, "geometry": { "type": "Point", "coordinates": [ -91.29155, 18.178278 ] } },
{ "type": "Feature", "properties": { "id_geo_n": 2233, "nom_comerc": "UNIDAD BÁSICA DE REHABILITACIÓN AGUACATAL" }, "geometry": { "type": "Point", "coordinates": [ -91.511007, 18.211429 ] } },
{ "type": "Feature", "properties": { "id_geo_n": 2223, "nom_comerc": "SISTEMA DIF MUNICIPAL DE CANDELARIA" }, "geometry": { "type": "Point", "coordinates": [ -91.0440357, 18.1840028 ] } },
{ "type": "Feature", "properties": { "id_geo_n": 2273, "nom_comerc": "CENTRO DE SALUD OJO DE AGUA" }, "geometry": { "type": "Point", "coordinates": [ -91.218841, 18.340148 ] } },
{ "type": "Feature", "properties": { "id_geo_n": 2832, "nom_comerc": "UNIDAD MÉDICA MÓVIL P-8" }, "geometry": { "type": "Point", "coordinates": [ -91.408638, 18.151745 ] } },
{ "type": "Feature", "properties": { "id_geo_n": 2789, "nom_comerc": "UNIDAD MÉDICA MÓVIL P-8" }, "geometry": { "type": "Point", "coordinates": [ -91.408638, 18.151745 ] } },
{ "type": "Feature", "properties": { "id_geo_n": 2356, "nom_comerc": "UNIDAD MÉDICA MÓVIL P-8" }, "geometry": { "type": "Point", "coordinates": [ -91.408638, 18.151745 ] } },
{ "type": "Feature", "properties": { "id_geo_n": 2785, "nom_comerc": "CENTRO DE SALUD PARAÍSO NUEVO" }, "geometry": { "type": "Point", "coordinates": [ -91.103439, 18.071103 ] } },
{ "type": "Feature", "properties": { "id_geo_n": 2325, "nom_comerc": "CENTRO DE SALUD PARAÍSO NUEVO" }, "geometry": { "type": "Point", "coordinates": [ -91.103439, 18.071103 ] } },
{ "type": "Feature", "properties": { "id_geo_n": 2839, "nom_comerc": "UNIDAD MÉDICA MÓVIL P-12" }, "geometry": { "type": "Point", "coordinates": [ -91.0781817, 18.1187458 ] } },
{ "type": "Feature", "properties": { "id_geo_n": 2769, "nom_comerc": "UNIDAD MÉDICA MÓVIL P-12" }, "geometry": { "type": "Point", "coordinates": [ -91.0781817, 18.1187458 ] } },
{ "type": "Feature", "properties": { "id_geo_n": 2363, "nom_comerc": "UNIDAD MÉDICA MÓVIL P-12" }, "geometry": { "type": "Point", "coordinates": [ -91.0781817, 18.1187458 ] } },
{ "type": "Feature", "properties": { "id_geo_n": 2816, "nom_comerc": "CENTRO DE SALUD VENUSTIANO CARRANZA" }, "geometry": { "type": "Point", "coordinates": [ -91.0274, 18.147854 ] } },
{ "type": "Feature", "properties": { "id_geo_n": 2915, "nom_comerc": "UMEC-7 LAS DELICIAS" }, "geometry": { "type": "Point", "coordinates": [ -90.944328, 18.100448 ] } },
{ "type": "Feature", "properties": { "id_geo_n": 2835, "nom_comerc": "UNIDAD MÉDICA MÓVIL P-13" }, "geometry": { "type": "Point", "coordinates": [ -90.9253142, 18.0770819 ] } },
{ "type": "Feature", "properties": { "id_geo_n": 2793, "nom_comerc": "UNIDAD MÉDICA MÓVIL P-13" }, "geometry": { "type": "Point", "coordinates": [ -90.9253142, 18.0770819 ] } },
{ "type": "Feature", "properties": { "id_geo_n": 2359, "nom_comerc": "UNIDAD MÉDICA MÓVIL P-13" }, "geometry": { "type": "Point", "coordinates": [ -90.9253142, 18.0770819 ] } },
{ "type": "Feature", "properties": { "id_geo_n": 2782, "nom_comerc": "CENTRO DE SALUD MONCLOVA" }, "geometry": { "type": "Point", "coordinates": [ -90.822091, 18.057349 ] } },
{ "type": "Feature", "properties": { "id_geo_n": 2322, "nom_comerc": "CENTRO DE SALUD MONCLOVA" }, "geometry": { "type": "Point", "coordinates": [ -90.822091, 18.057349 ] } },
{ "type": "Feature", "properties": { "id_geo_n": 2777, "nom_comerc": "CENTRO DE SALUD LA ESMERALDA" }, "geometry": { "type": "Point", "coordinates": [ -90.712719, 18.091885 ] } },
{ "type": "Feature", "properties": { "id_geo_n": 2319, "nom_comerc": "CENTRO DE SALUD LA ESMERALDA" }, "geometry": { "type": "Point", "coordinates": [ -90.712719, 18.091885 ] } },
{ "type": "Feature", "properties": { "id_geo_n": 2316, "nom_comerc": "CENTRO DE SALUD SAN JUAN ARROYO" }, "geometry": { "type": "Point", "coordinates": [ -90.629532, 18.107483 ] } },
{ "type": "Feature", "properties": { "id_geo_n": 2774, "nom_comerc": "CENTRO DE SALUD SAN JUAN ARROYO" }, "geometry": { "type": "Point", "coordinates": [ -90.629532, 18.107483 ] } },
{ "type": "Feature", "properties": { "id_geo_n": 2857, "nom_comerc": "UNIDAD MEDICA MOVIL P-40 NUEVO COMALCALCO" }, "geometry": { "type": "Point", "coordinates": [ -90.477701, 18.138185 ] } },
{ "type": "Feature", "properties": { "id_geo_n": 2882, "nom_comerc": "UNIDAD MEDICA MOVIL P-40" }, "geometry": { "type": "Point", "coordinates": [ -90.477701, 18.138185 ] } },
{ "type": "Feature", "properties": { "id_geo_n": 2343, "nom_comerc": "CENTRO DE SALUD VENUSTIANO CARRANZA" }, "geometry": { "type": "Point", "coordinates": [ -91.0274, 18.147854 ] } },
{ "type": "Feature", "properties": { "id_geo_n": 2377, "nom_comerc": "UNIDAD MEDICA MOVIL P-40 NUEVO COMALCALCO" }, "geometry": { "type": "Point", "coordinates": [ -90.477701, 18.138185 ] } },
{ "type": "Feature", "properties": { "id_geo_n": 2230, "nom_comerc": "UNIDAD BÁSICA DE REHABILITACIÓN DE LA ESMERALDA" }, "geometry": { "type": "Point", "coordinates": [ -90.712691, 18.091865 ] } },
{ "type": "Feature", "properties": { "id_geo_n": 2458, "nom_comerc": "MAMANTEL" }, "geometry": { "type": "Point", "coordinates": [ -91.09, 18.5244444 ] } },
{ "type": "Feature", "properties": { "id_geo_n": 2439, "nom_comerc": "FRANCISCO VILLA (MAMANTEL)" }, "geometry": { "type": "Point", "coordinates": [ -91.09, 18.5244 ] } },
{ "type": "Feature", "properties": { "id_geo_n": 2455, "nom_comerc": "MAMANTEL" }, "geometry": { "type": "Point", "coordinates": [ -91.0851184, 18.531606 ] } },
{ "type": "Feature", "properties": { "id_geo_n": 2696, "nom_comerc": "CENTRO DE SALUD LIC. GUSTAVO DÍAZ ORDAZ" }, "geometry": { "type": "Point", "coordinates": [ -91.0047, 18.6311 ] } },
{ "type": "Feature", "properties": { "id_geo_n": 2886, "nom_comerc": "UNIDAD MÉDICA MÓVIL INDEPENDENCIA P-44" }, "geometry": { "type": "Point", "coordinates": [ -90.977277, 18.69517 ] } },
{ "type": "Feature", "properties": { "id_geo_n": 2750, "nom_comerc": "CENTRO DE SALUD NUEVO PROGRESO II" }, "geometry": { "type": "Point", "coordinates": [ -90.914969, 18.62197 ] } },
{ "type": "Feature", "properties": { "id_geo_n": 2747, "nom_comerc": "CENTRO DE SALUD EJIDO KM-36" }, "geometry": { "type": "Point", "coordinates": [ -90.848376, 18.617737 ] } },
{ "type": "Feature", "properties": { "id_geo_n": 2743, "nom_comerc": "UNIDAD MÉDICA MÓVIL P-6" }, "geometry": { "type": "Point", "coordinates": [ -90.7847183, 18.6210658 ] } },
{ "type": "Feature", "properties": { "id_geo_n": 2744, "nom_comerc": "UNIDAD MÉDICO DENTAL P-18" }, "geometry": { "type": "Point", "coordinates": [ -90.7847183, 18.6210658 ] } },
{ "type": "Feature", "properties": { "id_geo_n": 2830, "nom_comerc": "UNIDAD MÉDICA MÓVIL P-6" }, "geometry": { "type": "Point", "coordinates": [ -90.7847183, 18.6210658 ] } },
{ "type": "Feature", "properties": { "id_geo_n": 2745, "nom_comerc": "CENTRO DE SALUD DIVISIÓN DEL NORTE" }, "geometry": { "type": "Point", "coordinates": [ -90.7622732, 18.5295439 ] } },
{ "type": "Feature", "properties": { "id_geo_n": 2897, "nom_comerc": "CENTRO COMUNITARIO DE SALUD MENTAL Y ADICCIONES ESCÁRCEGA" }, "geometry": { "type": "Point", "coordinates": [ -90.745724, 18.618537 ] } },
{ "type": "Feature", "properties": { "id_geo_n": 2869, "nom_comerc": "OFICINAS JURISDICCIONALES" }, "geometry": { "type": "Point", "coordinates": [ -90.7449, 18.606 ] } },
{ "type": "Feature", "properties": { "id_geo_n": 2873, "nom_comerc": "ALMACÉN JURISDICCIONAL" }, "geometry": { "type": "Point", "coordinates": [ -90.7449, 18.606 ] } },
{ "type": "Feature", "properties": { "id_geo_n": 2905, "nom_comerc": "HOSPITAL GENERAL DE ESCARCEGA DR. JANELL ROMERO AGUILAR" }, "geometry": { "type": "Point", "coordinates": [ -90.744511, 18.618552 ] } },
{ "type": "Feature", "properties": { "id_geo_n": 2469, "nom_comerc": "UMF 5 ESCARCEGA" }, "geometry": { "type": "Point", "coordinates": [ -90.7304656, 18.5999739 ] } },
{ "type": "Feature", "properties": { "id_geo_n": 2484, "nom_comerc": "ESCARCEGA" }, "geometry": { "type": "Point", "coordinates": [ -90.7291, 18.6037 ] } },
{ "type": "Feature", "properties": { "id_geo_n": 2741, "nom_comerc": "CENTRO DE SALUD ESCÁRCEGA" }, "geometry": { "type": "Point", "coordinates": [ -90.728818, 18.604526 ] } },
{ "type": "Feature", "properties": { "id_geo_n": 2740, "nom_comerc": "HOSPITAL GENERAL DE ESCÁRCEGA" }, "geometry": { "type": "Point", "coordinates": [ -90.7286, 18.6049 ] } },
{ "type": "Feature", "properties": { "id_geo_n": 2440, "nom_comerc": "MATAMOROS" }, "geometry": { "type": "Point", "coordinates": [ -90.645031, 18.583851 ] } },
{ "type": "Feature", "properties": { "id_geo_n": 2753, "nom_comerc": "CENTRO DE SALUD ADOLFO LÓPEZ MATEOS" }, "geometry": { "type": "Point", "coordinates": [ -90.299352, 18.63904 ] } },
{ "type": "Feature", "properties": { "id_geo_n": 2307, "nom_comerc": "CENTRO DE SALUD NUEVO PROGRESO II" }, "geometry": { "type": "Point", "coordinates": [ -90.914969, 18.62197 ] } },
{ "type": "Feature", "properties": { "id_geo_n": 2305, "nom_comerc": "CENTRO DE SALUD EJIDO KM-36" }, "geometry": { "type": "Point", "coordinates": [ -90.848376, 18.617737 ] } },
{ "type": "Feature", "properties": { "id_geo_n": 2310, "nom_comerc": "CENTRO DE SALUD ADOLFO LÓPEZ MATEOS" }, "geometry": { "type": "Point", "coordinates": [ -90.299352, 18.63904 ] } },
{ "type": "Feature", "properties": { "id_geo_n": 2354, "nom_comerc": "UNIDAD MÉDICA MÓVIL P-6" }, "geometry": { "type": "Point", "coordinates": [ -90.7847183, 18.6210658 ] } },
{ "type": "Feature", "properties": { "id_geo_n": 2390, "nom_comerc": "UNIDAD MÉDICA MÓVIL INDEPENDENCIA P-44" }, "geometry": { "type": "Point", "coordinates": [ -90.977277, 18.69517 ] } },
{ "type": "Feature", "properties": { "id_geo_n": 2395, "nom_comerc": "CENTRO COMUNITARIO DE SALUD MENTAL Y ADICCIONES ESCÁRCEGA" }, "geometry": { "type": "Point", "coordinates": [ -90.745724, 18.618537 ] } },
{ "type": "Feature", "properties": { "id_geo_n": 2419, "nom_comerc": "CENTENARIO" }, "geometry": { "type": "Point", "coordinates": [ -90.2858269, 18.6513787 ] } },
{ "type": "Feature", "properties": { "id_geo_n": 2420, "nom_comerc": "CONSTITUCIÓN (EL SETENTA)" }, "geometry": { "type": "Point", "coordinates": [ -90.136363, 18.6252335 ] } },
{ "type": "Feature", "properties": { "id_geo_n": 2401, "nom_comerc": "HOSPITAL GENERAL DE ESCARCEGA DR. JANELL ROMERO AGUILAR" }, "geometry": { "type": "Point", "coordinates": [ -90.744511, 18.618552 ] } },
{ "type": "Feature", "properties": { "id_geo_n": 2226, "nom_comerc": "UNIDAD BASICA DE REHABILITACIÓN CONSTITUCION" }, "geometry": { "type": "Point", "coordinates": [ -90.1382997, 18.6271053 ] } },
{ "type": "Feature", "properties": { "id_geo_n": 2231, "nom_comerc": "UNIDAD BÁSICA DE REHABILITACION DE MIGUEL HIDALGO" }, "geometry": { "type": "Point", "coordinates": [ -90.667889, 18.544422 ] } },
{ "type": "Feature", "properties": { "id_geo_n": 2211, "nom_comerc": "CRUZ ROJA MEXICANA DELEGACIÓN LOCAL ESCÁRCEGA" }, "geometry": { "type": "Point", "coordinates": [ -90.7344, 18.6067 ] } },
{ "type": "Feature", "properties": { "id_geo_n": 2222, "nom_comerc": "SISTEMA DIF MUNICIPAL DE ESCÁRCEGA" }, "geometry": { "type": "Point", "coordinates": [ -90.7316064, 18.6048453 ] } },
{ "type": "Feature", "properties": { "id_geo_n": 2248, "nom_comerc": "SERVICIO MEDICO FORENSE ESCARCEGA" }, "geometry": { "type": "Point", "coordinates": [ -90.748391, 18.613742 ] } },
{ "type": "Feature", "properties": { "id_geo_n": 2302, "nom_comerc": "CENTRO DE SALUD ESCÁRCEGA" }, "geometry": { "type": "Point", "coordinates": [ -90.728818, 18.604526 ] } },
{ "type": "Feature", "properties": { "id_geo_n": 2303, "nom_comerc": "CENTRO DE SALUD DIVISIÓN DEL NORTE" }, "geometry": { "type": "Point", "coordinates": [ -90.7622732, 18.5295439 ] } },
{ "type": "Feature", "properties": { "id_geo_n": 2792, "nom_comerc": "UNIDAD MÉDICA MÓVIL P-11" }, "geometry": { "type": "Point", "coordinates": [ -90.8225514, 18.2169011 ] } },
{ "type": "Feature", "properties": { "id_geo_n": 2838, "nom_comerc": "UNIDAD MÉDICA MÓVIL P-11" }, "geometry": { "type": "Point", "coordinates": [ -90.8225514, 18.2169011 ] } },
{ "type": "Feature", "properties": { "id_geo_n": 2362, "nom_comerc": "UNIDAD MÉDICA MÓVIL P-11" }, "geometry": { "type": "Point", "coordinates": [ -90.8225514, 18.2169011 ] } },
{ "type": "Feature", "properties": { "id_geo_n": 2916, "nom_comerc": "UMEC-8" }, "geometry": { "type": "Point", "coordinates": [ -90.807306, 18.2515 ] } },
{ "type": "Feature", "properties": { "id_geo_n": 2304, "nom_comerc": "CENTRO DE SALUD HARO" }, "geometry": { "type": "Point", "coordinates": [ -90.791437, 18.446628 ] } },
{ "type": "Feature", "properties": { "id_geo_n": 2746, "nom_comerc": "CENTRO DE SALUD HARO" }, "geometry": { "type": "Point", "coordinates": [ -90.791437, 18.446628 ] } },
{ "type": "Feature", "properties": { "id_geo_n": 2443, "nom_comerc": "BS 3 - EL PEDREGAL" }, "geometry": { "type": "Point", "coordinates": [ -90.7367, 18.1731 ] } },
{ "type": "Feature", "properties": { "id_geo_n": 2324, "nom_comerc": "CENTRO DE SALUD PABLO TORRES BURGOS" }, "geometry": { "type": "Point", "coordinates": [ -90.697616, 18.297512 ] } },
{ "type": "Feature", "properties": { "id_geo_n": 2784, "nom_comerc": "CENTRO DE SALUD PABLO TORRES BURGOS" }, "geometry": { "type": "Point", "coordinates": [ -90.697616, 18.297512 ] } },
{ "type": "Feature", "properties": { "id_geo_n": 2918, "nom_comerc": "UMEC-10 IGNACIO ZARAGOZA (EL SALVAJE)" }, "geometry": { "type": "Point", "coordinates": [ -90.68973, 18.372904 ] } },
{ "type": "Feature", "properties": { "id_geo_n": 2771, "nom_comerc": "UNIDAD MÉDICO MÓVIL P-15" }, "geometry": { "type": "Point", "coordinates": [ -90.652222, 18.373056 ] } },
{ "type": "Feature", "properties": { "id_geo_n": 2361, "nom_comerc": "UNIDAD MÉDICO MÓVIL P-15" }, "geometry": { "type": "Point", "coordinates": [ -90.652222, 18.373056 ] } },
{ "type": "Feature", "properties": { "id_geo_n": 2837, "nom_comerc": "UNIDAD MÉDICO MÓVIL P-15" }, "geometry": { "type": "Point", "coordinates": [ -90.652222, 18.373056 ] } },
{ "type": "Feature", "properties": { "id_geo_n": 2829, "nom_comerc": "UNIDAD MÉDICA MÓVIL P-5" }, "geometry": { "type": "Point", "coordinates": [ -90.5919092, 18.4927053 ] } },
{ "type": "Feature", "properties": { "id_geo_n": 2353, "nom_comerc": "UNIDAD MÉDICA MÓVIL P-5" }, "geometry": { "type": "Point", "coordinates": [ -90.5919092, 18.4927053 ] } },
{ "type": "Feature", "properties": { "id_geo_n": 2742, "nom_comerc": "UNIDAD MÉDICA MÓVIL P-5" }, "geometry": { "type": "Point", "coordinates": [ -90.5919092, 18.4927053 ] } },
{ "type": "Feature", "properties": { "id_geo_n": 2911, "nom_comerc": "UMEC-3 AGUA AZUL" }, "geometry": { "type": "Point", "coordinates": [ -90.517778, 18.433 ] } },
{ "type": "Feature", "properties": { "id_geo_n": 2415, "nom_comerc": "DON SAMUEL" }, "geometry": { "type": "Point", "coordinates": [ -90.8572222, 18.36 ] } },
{ "type": "Feature", "properties": { "id_geo_n": 2412, "nom_comerc": "EL PEDREGAL (CANDELARIA)" }, "geometry": { "type": "Point", "coordinates": [ -90.7360231, 18.1727737 ] } },
{ "type": "Feature", "properties": { "id_geo_n": 2863, "nom_comerc": "UNIDAD MEDICA MOVIL NUEVO CAMPECHE P-18" }, "geometry": { "type": "Point", "coordinates": [ -90.53353, 18.50453 ] } },
{ "type": "Feature", "properties": { "id_geo_n": 2748, "nom_comerc": "CENTRO DE SALUD LA LIBERTAD" }, "geometry": { "type": "Point", "coordinates": [ -90.514, 18.5686 ] } },
{ "type": "Feature", "properties": { "id_geo_n": 2752, "nom_comerc": "C.S.ALTAMIRA DE ZINÁPARO (NUEVO ZINAPARO)" }, "geometry": { "type": "Point", "coordinates": [ -90.258309, 18.580898 ] } },
{ "type": "Feature", "properties": { "id_geo_n": 2848, "nom_comerc": "UNIDAD MÉDICA MÓVIL P-31" }, "geometry": { "type": "Point", "coordinates": [ -89.4434336, 18.5129658 ] } },
{ "type": "Feature", "properties": { "id_geo_n": 2760, "nom_comerc": "UNIDAD MÉDICA MÓVIL P-31" }, "geometry": { "type": "Point", "coordinates": [ -89.4434336, 18.5129658 ] } },
{ "type": "Feature", "properties": { "id_geo_n": 2765, "nom_comerc": "CENTRO DE SALUD PUEBLA DE MORELIA" }, "geometry": { "type": "Point", "coordinates": [ -89.6783, 18.5228 ] } },
{ "type": "Feature", "properties": { "id_geo_n": 2309, "nom_comerc": "C.S.ALTAMIRA DE ZINÁPARO (NUEVO ZINAPARO)" }, "geometry": { "type": "Point", "coordinates": [ -90.258309, 18.580898 ] } },
{ "type": "Feature", "properties": { "id_geo_n": 2364, "nom_comerc": "HOSPITAL INTEGRAL XPUJIL" }, "geometry": { "type": "Point", "coordinates": [ -89.395938, 18.516774 ] } },
{ "type": "Feature", "properties": { "id_geo_n": 2370, "nom_comerc": "UNIDAD MÉDICA MÓVIL P-31" }, "geometry": { "type": "Point", "coordinates": [ -89.4434336, 18.5129658 ] } },
{ "type": "Feature", "properties": { "id_geo_n": 2383, "nom_comerc": "UNIDAD MEDICA MOVIL NUEVO CAMPECHE P-18" }, "geometry": { "type": "Point", "coordinates": [ -90.53353, 18.50453 ] } },
{ "type": "Feature", "properties": { "id_geo_n": 2235, "nom_comerc": "UNIDAD BÁSICA DE REHABILITACIÓN XPUJIL" }, "geometry": { "type": "Point", "coordinates": [ -89.3966096, 18.5023211 ] } },
{ "type": "Feature", "properties": { "id_geo_n": 2840, "nom_comerc": "HOSPITAL INTEGRAL XPUJIL" }, "geometry": { "type": "Point", "coordinates": [ -89.395938, 18.516774 ] } },
{ "type": "Feature", "properties": { "id_geo_n": 2844, "nom_comerc": "UNIDAD MÉDICA MÓVIL P-29" }, "geometry": { "type": "Point", "coordinates": [ -89.3121281, 18.2408439 ] } },
{ "type": "Feature", "properties": { "id_geo_n": 2755, "nom_comerc": "HOSPITAL INTEGRAL XPUJIL" }, "geometry": { "type": "Point", "coordinates": [ -89.395938, 18.516774 ] } },
{ "type": "Feature", "properties": { "id_geo_n": 2758, "nom_comerc": "UNIDAD MÉDICA MÓVIL P-29" }, "geometry": { "type": "Point", "coordinates": [ -89.3121281, 18.2408439 ] } },
{ "type": "Feature", "properties": { "id_geo_n": 2434, "nom_comerc": "RICARDO PAYRO JENE (POLO NORTE)" }, "geometry": { "type": "Point", "coordinates": [ -89.4468323, 18.3167713 ] } },
{ "type": "Feature", "properties": { "id_geo_n": 2368, "nom_comerc": "UNIDAD MÉDICA MÓVIL P-29" }, "geometry": { "type": "Point", "coordinates": [ -89.3121281, 18.2408439 ] } },
{ "type": "Feature", "properties": { "id_geo_n": 2764, "nom_comerc": "CENTRO DE SALUD LEY DE FTO. AGROPECUARIO" }, "geometry": { "type": "Point", "coordinates": [ -89.420662, 18.064424 ] } },
{ "type": "Feature", "properties": { "id_geo_n": 2433, "nom_comerc": "ZOH-LAGUNA (ÁLVARO OBREGÓN)" }, "geometry": { "type": "Point", "coordinates": [ -89.4185569, 18.5938519 ] } },
{ "type": "Feature", "properties": { "id_geo_n": 2459, "nom_comerc": "ALVARO OBREGON" }, "geometry": { "type": "Point", "coordinates": [ -89.4177778, 18.5933333 ] } },
{ "type": "Feature", "properties": { "id_geo_n": 2435, "nom_comerc": "EL CARMEN SEGUNDO (LAS CARMELAS)" }, "geometry": { "type": "Point", "coordinates": [ -89.4145703, 18.1571745 ] } },
{ "type": "Feature", "properties": { "id_geo_n": 2885, "nom_comerc": "UNIDAD MÉDICA MÓVIL SANTO DOMINGO P-43" }, "geometry": { "type": "Point", "coordinates": [ -89.375306, 17.999217 ] } },
{ "type": "Feature", "properties": { "id_geo_n": 2759, "nom_comerc": "UNIDAD MÉDICA MÓVIL P-30" }, "geometry": { "type": "Point", "coordinates": [ -89.3005517, 18.0700322 ] } },
{ "type": "Feature", "properties": { "id_geo_n": 2845, "nom_comerc": "UNIDAD MÉDICA MÓVIL P-30" }, "geometry": { "type": "Point", "coordinates": [ -89.3005517, 18.0700322 ] } },
{ "type": "Feature", "properties": { "id_geo_n": 2762, "nom_comerc": "CENTRO DE SALUD JÓSE MARIA MORELOS Y PAVÓN O CIVALITO" }, "geometry": { "type": "Point", "coordinates": [ -89.284557, 17.885818 ] } },
{ "type": "Feature", "properties": { "id_geo_n": 2849, "nom_comerc": "UNIDAD MÉDICA MÓVIL P-32" }, "geometry": { "type": "Point", "coordinates": [ -89.2566771, 17.9223921 ] } },
{ "type": "Feature", "properties": { "id_geo_n": 2761, "nom_comerc": "UNIDAD MÉDICA MÓVIL P-32" }, "geometry": { "type": "Point", "coordinates": [ -89.25631, 17.9232672 ] } },
{ "type": "Feature", "properties": { "id_geo_n": 2902, "nom_comerc": "UNIDAD MEDICA MÓVIL VEINTIUNO DE MAYO P-50" }, "geometry": { "type": "Point", "coordinates": [ -89.2043219, 18.2069347 ] } },
{ "type": "Feature", "properties": { "id_geo_n": 2891, "nom_comerc": "UNIDAD MÉDICA MÓVIL P-48" }, "geometry": { "type": "Point", "coordinates": [ -89.188613, 18.158842 ] } },
{ "type": "Feature", "properties": { "id_geo_n": 2861, "nom_comerc": "UNIDAD MEDICA MOVIL P-48 EL TESORO" }, "geometry": { "type": "Point", "coordinates": [ -89.188613, 18.158842 ] } },
{ "type": "Feature", "properties": { "id_geo_n": 2763, "nom_comerc": "CENTRO DE SALUD JOSÉFA ORTÍZ DE DOMÍNGUEZ" }, "geometry": { "type": "Point", "coordinates": [ -89.171857, 18.0700735 ] } },
{ "type": "Feature", "properties": { "id_geo_n": 2314, "nom_comerc": "CENTRO DE SALUD LEY DE FTO. AGROPECUARIO" }, "geometry": { "type": "Point", "coordinates": [ -89.420662, 18.064424 ] } },
{ "type": "Feature", "properties": { "id_geo_n": 2312, "nom_comerc": "CENTRO DE SALUD JÓSE MARIA MORELOS Y PAVÓN O CIVALITO" }, "geometry": { "type": "Point", "coordinates": [ -89.284557, 17.885818 ] } },
{ "type": "Feature", "properties": { "id_geo_n": 2313, "nom_comerc": "CENTRO DE SALUD JOSÉFA ORTÍZ DE DOMÍNGUEZ" }, "geometry": { "type": "Point", "coordinates": [ -89.171857, 18.0700735 ] } },
{ "type": "Feature", "properties": { "id_geo_n": 2389, "nom_comerc": "UNIDAD MÉDICA MÓVIL SANTO DOMINGO P-43" }, "geometry": { "type": "Point", "coordinates": [ -89.375306, 17.999217 ] } },
{ "type": "Feature", "properties": { "id_geo_n": 2398, "nom_comerc": "UNIDAD MEDICA MÓVIL VEINTIUNO DE MAYO P-50" }, "geometry": { "type": "Point", "coordinates": [ -89.2043219, 18.2069347 ] } },
{ "type": "Feature", "properties": { "id_geo_n": 2371, "nom_comerc": "UNIDAD MÉDICA MÓVIL P-32" }, "geometry": { "type": "Point", "coordinates": [ -89.2566771, 17.9223921 ] } },
{ "type": "Feature", "properties": { "id_geo_n": 2369, "nom_comerc": "UNIDAD MÉDICA MÓVIL P-30" }, "geometry": { "type": "Point", "coordinates": [ -89.3005517, 18.0700322 ] } },
{ "type": "Feature", "properties": { "id_geo_n": 2381, "nom_comerc": "UNIDAD MEDICA MOVIL P-48 EL TESORO" }, "geometry": { "type": "Point", "coordinates": [ -89.188613, 18.158842 ] } },
{ "type": "Feature", "properties": { "id_geo_n": 2239, "nom_comerc": "UNIDAD BÁSICA DE REHABILITACIÓN JOSE MA. MORELOS" }, "geometry": { "type": "Point", "coordinates": [ -89.2858246, 17.8874964 ] } },
{ "type": "Feature", "properties": { "id_geo_n": 2240, "nom_comerc": "UNIDAD BÁSICA DE REHABILITACIÓN LEY DE FOMENTO AGROPECUARIO" }, "geometry": { "type": "Point", "coordinates": [ -89.4207763, 18.0644722 ] } },
{ "type": "Feature", "properties": { "id_geo_n": 2403, "nom_comerc": "CENTRO DE SALUD EL NARANJO" }, "geometry": { "type": "Point", "coordinates": [ -91.129415, 18.025701 ] } },
{ "type": "Feature", "properties": { "id_geo_n": 2323, "nom_comerc": "CENTRO DE SALUD EL NARANJO" }, "geometry": { "type": "Point", "coordinates": [ -91.125271, 18.018329 ] } },
{ "type": "Feature", "properties": { "id_geo_n": 2783, "nom_comerc": "CENTRO DE SALUD EL NARANJO" }, "geometry": { "type": "Point", "coordinates": [ -91.125271, 18.018329 ] } },
{ "type": "Feature", "properties": { "id_geo_n": 2298, "nom_comerc": "CENTRO DE SALUD EL JUNCAL" }, "geometry": { "type": "Point", "coordinates": [ -91.865093, 18.039836 ] } },
{ "type": "Feature", "properties": { "id_geo_n": 2733, "nom_comerc": "CENTRO DE SALUD EL JUNCAL" }, "geometry": { "type": "Point", "coordinates": [ -91.865093, 18.039836 ] } },
{ "type": "Feature", "properties": { "id_geo_n": 2850, "nom_comerc": "UNIDAD MÉDICA MÓVIL P-33" }, "geometry": { "type": "Point", "coordinates": [ -91.6599128, 18.0422725 ] } },
{ "type": "Feature", "properties": { "id_geo_n": 2372, "nom_comerc": "UNIDAD MÉDICA MÓVIL P-33" }, "geometry": { "type": "Point", "coordinates": [ -91.6599128, 18.0422725 ] } },
{ "type": "Feature", "properties": { "id_geo_n": 2736, "nom_comerc": "UNIDAD MÉDICA MÓVIL P-33" }, "geometry": { "type": "Point", "coordinates": [ -91.6599128, 18.0422725 ] } },
{ "type": "Feature", "properties": { "id_geo_n": 2836, "nom_comerc": "UNIDAD MÉDICA MÓVIL P-14" }, "geometry": { "type": "Point", "coordinates": [ -90.9367983, 17.9885572 ] } },
{ "type": "Feature", "properties": { "id_geo_n": 2770, "nom_comerc": "UNIDAD MÉDICA MÓVIL P-14" }, "geometry": { "type": "Point", "coordinates": [ -90.9367983, 17.9885572 ] } },
{ "type": "Feature", "properties": { "id_geo_n": 2360, "nom_comerc": "UNIDAD MÉDICA MÓVIL P-14" }, "geometry": { "type": "Point", "coordinates": [ -90.9367983, 17.9885572 ] } },
{ "type": "Feature", "properties": { "id_geo_n": 2787, "nom_comerc": "CENTRO DE SALUD VENUSTIANO CARRANZA" }, "geometry": { "type": "Point", "coordinates": [ -90.880077, 18.02006 ] } },
{ "type": "Feature", "properties": { "id_geo_n": 2819, "nom_comerc": "CENTRO DE SALUD ESTADO DE MEXICO" }, "geometry": { "type": "Point", "coordinates": [ -90.8794181, 18.0198643 ] } },
{ "type": "Feature", "properties": { "id_geo_n": 2346, "nom_comerc": "CENTRO DE SALUD ESTADO DE MEXICO" }, "geometry": { "type": "Point", "coordinates": [ -90.8794181, 18.0198643 ] } },
{ "type": "Feature", "properties": { "id_geo_n": 2326, "nom_comerc": "CENTRO DE SALUD PEDRO BARANDA" }, "geometry": { "type": "Point", "coordinates": [ -90.864705, 17.970737 ] } },
{ "type": "Feature", "properties": { "id_geo_n": 2786, "nom_comerc": "CENTRO DE SALUD PEDRO BARANDA" }, "geometry": { "type": "Point", "coordinates": [ -90.864705, 17.970737 ] } },
{ "type": "Feature", "properties": { "id_geo_n": 2321, "nom_comerc": "CENTRO DE SALUD MIGUEL HIDALGO" }, "geometry": { "type": "Point", "coordinates": [ -90.844825, 17.890766 ] } },
{ "type": "Feature", "properties": { "id_geo_n": 2781, "nom_comerc": "CENTRO DE SALUD MIGUEL HIDALGO" }, "geometry": { "type": "Point", "coordinates": [ -90.844825, 17.890766 ] } },
{ "type": "Feature", "properties": { "id_geo_n": 2444, "nom_comerc": "BS 2 - NUEVO COAHUILA" }, "geometry": { "type": "Point", "coordinates": [ -90.7794, 17.8917 ] } },
{ "type": "Feature", "properties": { "id_geo_n": 2413, "nom_comerc": "NUEVO COAHUILA" }, "geometry": { "type": "Point", "coordinates": [ -90.7793413, 17.8902125 ] } },
{ "type": "Feature", "properties": { "id_geo_n": 2884, "nom_comerc": "UNIDAD MEDICA MOVIL HECTOR PEREZ MORALES P-42" }, "geometry": { "type": "Point", "coordinates": [ -90.696748, 18.044545 ] } },
{ "type": "Feature", "properties": { "id_geo_n": 2388, "nom_comerc": "UNIDAD MEDICA MOVIL HECTOR PEREZ MORALES P-42" }, "geometry": { "type": "Point", "coordinates": [ -90.696748, 18.044545 ] } },
{ "type": "Feature", "properties": { "id_geo_n": 2917, "nom_comerc": "UMEC-9 ESTRELLA DEL SUR" }, "geometry": { "type": "Point", "coordinates": [ -90.668389, 17.824889 ] } },
{ "type": "Feature", "properties": { "id_geo_n": 2788, "nom_comerc": "CENTRO DE SALUD VICENTE GUERRERO II" }, "geometry": { "type": "Point", "coordinates": [ -90.6053, 17.9086 ] } },
{ "type": "Feature", "properties": { "id_geo_n": 2779, "nom_comerc": "C.S. FLOR DE CHIAPAS" }, "geometry": { "type": "Point", "coordinates": [ -90.6049, 17.8841 ] } },
{ "type": "Feature", "properties": { "id_geo_n": 2889, "nom_comerc": "UNIDAD MÉDICA MÓVIL P-46" }, "geometry": { "type": "Point", "coordinates": [ -90.575466, 18.031525 ] } },
{ "type": "Feature", "properties": { "id_geo_n": 2859, "nom_comerc": "UNIDAD MEDICA MOVIL P-46 LAGUNA LA PERDIDA" }, "geometry": { "type": "Point", "coordinates": [ -90.575466, 18.031525 ] } },
{ "type": "Feature", "properties": { "id_geo_n": 2379, "nom_comerc": "UNIDAD MEDICA MOVIL P-46 LAGUNA LA PERDIDA" }, "geometry": { "type": "Point", "coordinates": [ -90.575466, 18.031525 ] } },
{ "type": "Feature", "properties": { "id_geo_n": 2375, "nom_comerc": "UNIDAD MÉDICA MÓVIL P-16" }, "geometry": { "type": "Point", "coordinates": [ -90.5453425, 17.9142572 ] } },
{ "type": "Feature", "properties": { "id_geo_n": 2853, "nom_comerc": "UNIDAD MÉDICA MÓVIL P-16" }, "geometry": { "type": "Point", "coordinates": [ -90.5453425, 17.9142572 ] } },